,dr_no,area,date_occ,time_occ,location,lat,lon,crm_cd,zipcode
0,190519119,5,2019-12-09T00:00:00.000,130,25100    FRAMPTON                     AV,33.7968,-118.2999,901,90710
1,190720594,7,2019-12-09T00:00:00.000,1055,1200 S  LA BREA                      AV,34.0534,-118.3436,745,90019
2,191228459,12,2019-12-09T00:00:00.000,2350,4500 S  VAN NESS                     AV,34.0028,-118.3171,230,90062
3,191824614,18,2019-12-09T00:00:00.000,1915,10100    GRANDEE                      AV,33.9397,-118.2438,230,90002
4,190920997,9,2019-12-09T00:00:00.000,700,14200    RIVERSIDE                    DR,34.1576,-118.4422,310,91423
5,190326059,3,2019-12-09T00:00:00.000,100,4000    STEVELY                      AV,34.015,-118.3536,740,90008
6,192021119,20,2019-12-09T00:00:00.000,220,700 S  CATALINA                     ST,34.0598,-118.2954,626,90005
7,190222985,2,2019-12-09T00:00:00.000,1030,N  VERMONT                      AV,34.0888,-118.2917,230,90029
8,191018734,10,2019-12-09T00:00:00.000,130,17500    ROSCOE                       BL,34.2209,-118.5149,626,91325
9,191617398,16,2019-12-09T00:00:00.000,130,11200    WOODCOCK                     AV,34.2743,-118.4194,930,91331
10,190519116,5,2019-12-09T00:00:00.000,50,PACIFIC COAST                HY,33.8481,-118.3041,946,90501
11,191323538,13,2019-12-09T00:00:00.000,951,41ST                         ST,34.0086,-118.2474,813,90011
12,190417757,4,2019-12-09T00:00:00.000,300,900 S  FRESNO                       ST,34.0298,-118.2056,626,90023
14,190920990,9,2019-12-09T00:00:00.000,1610,14900    BURBANK                      BL,34.1721,-118.4574,660,91411
15,190720589,7,2019-12-09T00:00:00.000,1150,600 S  DETROIT                      ST,34.0649,-118.3451,210,90036
16,190128822,1,2019-12-09T00:00:00.000,304,7TH                          ST,34.0445,-118.2523,350,90014
17,190128870,1,2019-12-09T00:00:00.000,900,1600 S  HOPE                         ST,34.0363,-118.2677,510,90015
18,190326089,3,2019-12-09T00:00:00.000,1325,2700 S  FIGUEROA                     ST,34.0268,-118.2808,442,90007
19,190921001,9,2019-12-09T00:00:00.000,331,14100    SHERMAN                      WY,34.2012,-118.44,520,91405
20,191824630,18,2019-12-09T00:00:00.000,1400,BROADWAY,33.9265,-118.2782,230,90061
21,191920321,19,2019-12-09T00:00:00.000,1145,12500    SAN FERNANDO                 RD,34.2913,-118.4502,210,91342
22,190222996,2,2019-12-09T00:00:00.000,1140,1500 W  8TH                          ST,34.0511,-118.2707,230,90017
23,191617394,16,2019-12-09T00:00:00.000,1100,TUXFORD,34.2275,-118.381,210,91352
24,191521697,15,2019-12-09T00:00:00.000,1740,11300    TIARA                        ST,34.1785,-118.3768,354,91601
25,190519127,5,2019-12-09T00:00:00.000,415,1200 W  LOMITA                       BL,33.7978,-118.2975,230,90710
26,190623483,6,2019-12-09T00:00:00.000,1400,7500    DE LONGPRE                   AV,34.0962,-118.3545,341,90046
27,190417770,4,2019-12-09T00:00:00.000,730,5300    HUNTINGTON DR,34.0906,-118.1648,624,90032
28,190128868,1,2019-12-09T00:00:00.000,1620,700 E  6TH                          ST,34.0412,-118.2436,900,90021
29,191323551,13,2019-12-09T00:00:00.000,200,2500 S  NAOMI                        AV,34.0186,-118.2519,510,90011
30,191228534,12,2019-12-09T00:00:00.000,330,2100 W  52ND                         ST,33.9951,-118.316,740,90062
31,190128857,1,2019-12-09T00:00:00.000,1500,CHICK HEARN                  CT,34.0451,-118.27,210,90015
32,190128867,1,2019-12-09T00:00:00.000,800,18TH                         ST,34.0359,-118.2711,745,90015
33,191228458,12,2019-12-09T00:00:00.000,2350,4500 S  VAN NESS                     AV,34.0028,-118.3171,230,90062
34,190920985,9,2019-12-09T00:00:00.000,230,15000    VALLEYHEART                  DR,34.161,-118.4596,420,91403
35,190417772,4,2019-12-09T00:00:00.000,1220,4400    GUARDIA                      AV,34.0965,-118.1674,626,90032
36,191120611,11,2019-12-09T00:00:00.000,1243,2600    COLORADO                     BL,34.1442,-118.21799999999999,886,90041
37,190128865,1,2019-12-09T00:00:00.000,1250,500    WALL                         ST,34.0449,-118.2458,624,90013
38,190920987,9,2019-12-09T00:00:00.000,1400,14200    MOORPARK                     ST,34.1507,-118.4422,740,91423
39,190720571,7,2019-12-09T00:00:00.000,1145,200 S  LA BREA                      AV,34.0726,-118.3463,341,90036
40,190128859,1,2019-12-09T00:00:00.000,800,HOPE                         ST,34.0437,-118.2617,420,90015
41,191120622,11,2019-12-09T00:00:00.000,1250,4900    LOS FELIZ                    BL,34.1103,-118.2963,888,90027
42,191120605,11,2019-12-09T00:00:00.000,1030,4700    CRYSTAL SPRINGS              DR,34.1516,-118.2859,330,90027
43,191018778,10,2019-12-09T00:00:00.000,1740,5100    CALVIN                       AV,34.1646,-118.5558,354,91356
44,191617375,16,2019-12-09T00:00:00.000,300,11800    RIALTO                       ST,34.2271,-118.3906,310,91352
45,191425187,14,2019-12-09T00:00:00.000,1235,3500    BUTLER                       AV,34.0154,-118.4266,888,90066
46,190720557,7,2019-12-09T00:00:00.000,600,400 N  LA CIENEGA                   BL,34.0784,-118.3766,740,90048
47,191120591,11,2019-12-09T00:00:00.000,1620,1300 N  SAN FERNANDO                 RD,34.0974,-118.2367,901,90065
48,190326060,3,2019-12-09T00:00:00.000,410,4000    WEST                         BL,34.0128,-118.3447,510,90008
49,190623475,6,2019-12-09T00:00:00.000,115,1500    VINE                         ST,34.0987,-118.3337,662,90028
50,190128834,1,2019-12-09T00:00:00.000,320,9TH,34.0423,-118.2561,330,90015
51,190920995,9,2019-12-09T00:00:00.000,530,15400    SHERMAN                      WY,34.2085,-118.4698,626,91406
52,190326075,3,2019-12-09T00:00:00.000,930,5600 W  JEFFERSON                    BL,34.0263,-118.3686,761,90016
53,192119568,21,2019-12-09T00:00:00.000,1340,SHERMAN                      WY,34.201,-118.571,237,91306
54,190519121,5,2019-12-09T00:00:00.000,345,500 W  24TH                         ST,33.7225,-118.2971,745,90731
55,190326087,3,2019-12-09T00:00:00.000,1115,500 W  42ND                         ST,34.0071,-118.2827,236,90037
56,191425155,14,2019-12-09T00:00:00.000,125,6300 W  96TH                         ST,33.9487,-118.3963,888,90045
58,191920301,19,2019-12-09T00:00:00.000,15,8500    TILDEN                       AV,34.2248,-118.4469,510,91402
59,190519147,5,2019-12-09T00:00:00.000,1120,600 N  HARBOR                       BL,33.7485,-118.2803,626,90731
60,192119593,21,2019-12-09T00:00:00.000,1020,VENTURA                      BL,34.1664,-118.5883,624,91364
61,190623459,6,2019-12-09T00:00:00.000,30,5700    HAROLD                       WY,34.0993,-118.3136,624,90028
62,191120629,11,2019-12-09T00:00:00.000,500,2600    IDELL                        ST,34.086,-118.2248,420,90065
63,191323546,13,2019-12-09T00:00:00.000,200,TOWNE,34.0342,-118.2496,740,90021
64,190417778,4,2019-12-09T00:00:00.000,1400,400 S  BOYLE                        AV,34.0431,-118.2196,740,90033
65,192021134,20,2019-12-09T00:00:00.000,140,VERMONT                      AV,34.0654,-118.2916,625,90020
66,191824574,18,2019-12-09T00:00:00.000,1000,10900    MCKINLEY                     AV,33.9373,-118.2608,625,90059
67,191323548,13,2019-12-09T00:00:00.000,400,300 W  66TH                         ST,33.9798,-118.2783,810,90003
68,192021138,20,2019-12-09T00:00:00.000,1520,800 S  HARVARD                      BL,34.0577,-118.3042,510,90005
69,191617391,16,2019-12-09T00:00:00.000,330,12700    MONTAGUE                     ST,34.2487,-118.4098,510,91331
70,190417754,4,2019-12-09T00:00:00.000,259,5200    ALHAMBRA                     AV,34.0736,-118.1724,310,90032
71,191018759,10,2019-12-09T00:00:00.000,840,WHITE OAK                    AV,34.1723,-118.5185,886,91316
72,191120625,11,2019-12-09T00:00:00.000,1515,800 N  AVENUE 54,34.1152,-118.1991,626,90042
73,191323533,13,2019-12-09T00:00:00.000,200,MCKINLEY                     AV,34.0223,-118.2719,310,90007
74,191120592,11,2019-12-09T00:00:00.000,1620,1300 N  SAN FERNANDO                 RD,34.0974,-118.2367,901,90065
75,190720547,7,2019-12-09T00:00:00.000,645,1300    HAUSER                       BL,34.0513,-118.3558,210,90019
76,190519145,5,2019-12-09T00:00:00.000,1530,ANCHORAGE                    RD,33.7658,-118.2468,510,90744
77,192021118,20,2019-12-09T00:00:00.000,730,300 S  VERMONT                      AV,34.0691,-118.2917,440,90004
78,190417765,4,2019-12-09T00:00:00.000,900,600 S  LORENA                       ST,34.0308,-118.199,626,90023
79,192021129,20,2019-12-09T00:00:00.000,220,3100    WILSHIRE                     BL,34.0618,-118.2891,230,90020
80,191120594,11,2019-12-09T00:00:00.000,330,1300 N  SAN FERNANDO                 RD,34.0974,-118.2367,901,90065
81,191719139,17,2019-12-09T00:00:00.000,1815,18600    DEVONSHIRE                   ST,34.2609,-118.5346,510,91326
82,190128847,1,2019-12-09T00:00:00.000,820,800 S  FIGUEROA                     ST,34.0483,-118.2631,341,90015
83,191018779,10,2019-12-09T00:00:00.000,1740,5100    CALVIN                       AV,34.1646,-118.5558,354,91356
84,192119591,21,2019-12-09T00:00:00.000,1505,20300    CANTARA                      ST,34.2192,-118.5754,888,91306
85,192021142,20,2019-12-09T00:00:00.000,1240,1100    MENLO                        AV,34.0508,-118.2907,745,90006
86,190920964,9,2019-12-09T00:00:00.000,45,VANOWEN                      ST,34.1939,-118.4574,230,91405
87,190720572,7,2019-12-09T00:00:00.000,730,HIGHLAND,34.0871,-118.3386,626,90038
88,191228494,12,2019-12-09T00:00:00.000,141,800 E  74TH                         ST,33.973,-118.2608,648,90001
89,191018774,10,2019-12-09T00:00:00.000,454,7000    JAMIESON                     AV,34.1975,-118.5216,420,91335
90,190519146,5,2019-12-09T00:00:00.000,30,1500 W  PACIFIC COAST                HY,33.7895,-118.3027,230,90710
91,191425189,14,2019-12-09T00:00:00.000,1100,ROSE,34.0014,-118.4679,230,90291
92,192021113,20,2019-12-09T00:00:00.000,50,3900    BEVERLY                      BL,34.0763,-118.2932,210,90004
93,191120590,11,2019-12-09T00:00:00.000,530,2800 W  AVENUE 35,34.1157,-118.2358,510,90065
94,190128830,1,2019-12-09T00:00:00.000,700,300 E  5TH                          ST,34.0449,-118.2458,624,90013
95,192021124,20,2019-12-09T00:00:00.000,30,600 S  HOBART                       BL,34.0636,-118.3054,626,90020
96,191425157,14,2019-12-09T00:00:00.000,450,3700    WATSEKA                      AV,34.0267,-118.3986,341,90034
97,191228524,12,2019-12-09T00:00:00.000,1200,10600 S  WESTERN                      AV,33.9417,-118.3113,888,90047
98,191617396,16,2019-12-09T00:00:00.000,1100,VAN NUYS                     BL,34.2694,-118.4315,624,91331
99,191120589,11,2019-12-09T00:00:00.000,30,3000    WAVERLY                      DR,34.1106,-118.2678,626,90039
100,190128861,1,2019-12-09T00:00:00.000,1,LOS ANGELES                  ST,34.0485,-118.2447,330,90013
101,191323526,13,2019-12-09T00:00:00.000,445,5200 S  BROADWAY,33.9924,-118.2772,902,90037
102,190222998,2,2019-12-09T00:00:00.000,1200,300    FIRMIN                       ST,34.0638,-118.2545,510,90026
103,190128818,1,2019-12-09T00:00:00.000,110,700 S  HOPE                         ST,34.048,-118.2577,888,90017
104,190720567,7,2019-12-09T00:00:00.000,1000,8500 W  3RD                          ST,34.0734,-118.3765,230,90048
105,190519154,5,2019-12-09T00:00:00.000,2100,L,33.7867,-118.2643,753,90744
106,190623481,6,2019-12-09T00:00:00.000,1400,BEVERLY,34.0998,-118.3211,341,90028
107,190128856,1,2019-12-09T00:00:00.000,1005,700 S  FIGUEROA                     ST,34.0483,-118.2631,442,90015
108,191824615,18,2019-12-09T00:00:00.000,1915,10100    GRANDEE                      AV,33.9397,-118.2438,230,90002
109,191601086,16,2019-12-09T00:00:00.000,600,11100    ARMINTA                      ST,34.2178,-118.37299999999999,236,91352
110,190519143,5,2019-12-09T00:00:00.000,730,900    LAGOON                       AV,33.7811,-118.2676,740,90744
111,190128849,1,2019-12-09T00:00:00.000,900,700 W  7TH                          ST,34.0491,-118.2558,442,90017
112,190128850,1,2019-12-09T00:00:00.000,1030,100 W  2ND                          ST,34.051,-118.2445,341,90012
113,191920328,19,2019-12-09T00:00:00.000,1008,14100    POLK                         ST,34.3196,-118.4561,623,91342
114,190326070,3,2019-12-09T00:00:00.000,330,1800 W  39TH                         ST,34.0147,-118.3132,740,90062
115,190223007,2,2019-12-09T00:00:00.000,1215,1600    WILSHIRE                     BL,34.0554,-118.2702,210,90017
116,191425190,14,2019-12-09T00:00:00.000,1330,12400    LOUISE                       AV,33.9948,-118.4257,236,90066
117,191323540,13,2019-12-09T00:00:00.000,745,100 E  35TH                         ST,34.0179,-118.2731,236,90007
118,191824567,18,2019-12-09T00:00:00.000,1020,700 E  109TH                        PL,33.9365,-118.26299999999999,626,90059
119,190128823,1,2019-12-09T00:00:00.000,435,300 E  5TH                          ST,34.0453,-118.2443,624,90013
120,191120593,11,2019-12-09T00:00:00.000,715,4500    HOLLYWOOD                    BL,34.099000000000004,-118.2884,510,90027
121,191824631,18,2019-12-09T00:00:00.000,1000,107TH                        ST,33.9389,-118.2338,210,90002
122,190128855,1,2019-12-09T00:00:00.000,200,400    STANFORD                     AV,34.0439,-118.2399,510,90013
123,191228530,12,2019-12-09T00:00:00.000,1900,60TH,33.9859,-118.3046,510,90047
124,190819358,8,2019-12-09T00:00:00.000,745,8500 W  PICO                         BL,34.0534,-118.3762,624,90035
125,191228468,12,2019-12-09T00:00:00.000,45,59TH                         ST,33.9872,-118.3308,210,90043
126,190223001,2,2019-12-09T00:00:00.000,1600,2600 W  8TH                          ST,34.0573,-118.2831,626,90057
127,190326030,3,2019-12-08T00:00:00.000,1525,JEFFERSON                    BL,34.0255,-118.2937,625,90007
128,191920298,19,2019-12-08T00:00:00.000,1200,9600    ORION                        AV,34.2446,-118.4718,624,91343
129,190623463,6,2019-12-08T00:00:00.000,2200,800 N  HOBART                       BL,34.0846,-118.3051,330,90029
130,190720548,7,2019-12-08T00:00:00.000,2230,1300 S  COCHRAN                      AV,34.0509,-118.3516,330,90019
131,191824518,18,2019-12-08T00:00:00.000,700,1400 E  IMPERIAL,33.9323,-118.2502,510,90059
132,190920962,9,2019-12-08T00:00:00.000,40,15600    VANOWEN                      ST,34.1939,-118.4729,624,91406
133,190623454,6,2019-12-08T00:00:00.000,1830,HOLLYWOOD                    BL,34.1016,-118.3387,624,90028
134,192021114,20,2019-12-08T00:00:00.000,330,1900    CIMARRON                     ST,34.0399,-118.3155,626,90018
135,190819363,8,2019-12-08T00:00:00.000,1730,SAWTELLE,34.0445,-118.4491,330,90025
136,190623448,6,2019-12-08T00:00:00.000,1950,5300    LOMA LINDA                   AV,34.103,-118.305,740,90027
137,191120627,11,2019-12-08T00:00:00.000,405,5100    YORK                         BL,34.1211,-118.2048,740,90042
138,191824527,18,2019-12-08T00:00:00.000,1750,400 E  115TH                        ST,33.9301,-118.2664,624,90061
139,190417725,4,2019-12-08T00:00:00.000,300,CINCINNATI                   ST,34.046,-118.2035,740,90033
140,192021110,20,2019-12-08T00:00:00.000,530,2000 S  HARVARD                      BL,34.0389,-118.305,434,90018
141,191323523,13,2019-12-08T00:00:00.000,1900,WALL                         ST,33.9824,-118.2718,510,90003
142,190819323,8,2019-12-08T00:00:00.000,1550,1100 S  CORNING                      ST,34.0572,-118.3773,624,90035
143,192119559,21,2019-12-08T00:00:00.000,1100,7000    MILWOOD                      AV,34.1974,-118.5943,230,91303
144,191617374,16,2019-12-08T00:00:00.000,2230,11900    KATHYANN                     ST,34.2849,-118.3918,220,91342
145,190623476,6,2019-12-08T00:00:00.000,120,WILCOX,34.1016,-118.3311,624,90028
146,190128794,1,2019-12-08T00:00:00.000,1340,7TH                          ST,34.0346,-118.2306,220,90021
147,191228418,12,2019-12-08T00:00:00.000,30,800 W  70TH                         ST,33.9764,-118.2871,510,90044
148,190326053,3,2019-12-08T00:00:00.000,630,4100    PALMWOOD                     DR,34.0137,-118.3435,745,90008
149,190519115,5,2019-12-08T00:00:00.000,1735,1000 W  C                            ST,33.7721,-118.2736,210,90744
150,191521639,15,2019-12-08T00:00:00.000,1600,12100    MAGNOLIA                     BL,34.1649,-118.3965,341,91607
151,190417749,4,2019-12-08T00:00:00.000,40,3000    GLENN                        AV,34.0228,-118.2133,230,90023
152,191824519,18,2019-12-08T00:00:00.000,1430,200 W  115TH                        ST,33.9301,-118.2761,624,90061
153,191120571,11,2019-12-08T00:00:00.000,1445,2200    DORRIS                       PL,34.091,-118.2376,930,90031
154,191323504,13,2019-12-08T00:00:00.000,10,1500 E  41ST                         ST,34.0086,-118.2474,900,90011
155,191824575,18,2019-12-08T00:00:00.000,1830,88TH,33.9574,-118.2827,210,90003
156,191018726,10,2019-12-08T00:00:00.000,1750,7600    RESEDA                       BL,34.2148,-118.5404,624,91335
157,192021117,20,2019-12-08T00:00:00.000,2150,400 N  SERRANO                      AV,34.0776,-118.3069,740,90004
158,192119584,21,2019-12-08T00:00:00.000,1810,21000    SHERMAN                      WY,34.2047,-118.5879,440,91306
159,190128813,1,2019-12-08T00:00:00.000,1800,3RD,34.0461,-118.2395,330,90012
160,190819352,8,2019-12-08T00:00:00.000,1800,3000    RUSTIC CANYON                RD,34.0755,-118.5163,341,90049
161,190128800,1,2019-12-08T00:00:00.000,1200,500    WALL                         ST,34.0449,-118.2458,236,90013
162,191120576,11,2019-12-08T00:00:00.000,1510,2900    SWAN                         PL,34.0908,-118.2669,420,90026
163,192021120,20,2019-12-08T00:00:00.000,850,8TH,34.0591,-118.3205,510,90005
164,190623429,6,2019-12-08T00:00:00.000,250,6200    SANTA MONICA                 BL,34.0944,-118.3277,745,90028
165,191617385,16,2019-12-08T00:00:00.000,900,13100    EUSTACE                      ST,34.2824,-118.4179,740,91331
166,191617351,16,2019-12-08T00:00:00.000,1900,10400    FOOTHILL                     BL,34.2738,-118.3565,420,91342
167,191501436,15,2019-12-08T00:00:00.000,205,12700    VENTURA                      BL,34.1447,-118.4095,310,91604
168,191228442,12,2019-12-08T00:00:00.000,20,800 W  61ST                         ST,33.9847,-118.287,230,90044
169,190720523,7,2019-12-08T00:00:00.000,1445,200 N  LARCHMONT                    BL,34.0746,-118.3236,210,90004
170,190920939,9,2019-12-08T00:00:00.000,330,12900    VICTORY                      BL,34.1867,-118.4137,310,91606
171,191425119,14,2019-12-08T00:00:00.000,345,1400    PACIFIC                      AV,33.9889,-118.4732,510,90291
172,191018765,10,2019-12-08T00:00:00.000,1845,19000    VANOWEN                      ST,34.1939,-118.54700000000001,440,91335
173,192021136,20,2019-12-08T00:00:00.000,1715,2200    CAMBRIDGE                    ST,34.0445,-118.3062,850,90006
174,192021116,20,2019-12-08T00:00:00.000,330,1900    CIMARRON                     ST,34.0399,-118.3155,237,90018
175,191920272,19,2019-12-08T00:00:00.000,200,8000    BROADLEAF                    AV,34.2164,-118.4381,510,91402
176,192119582,21,2019-12-08T00:00:00.000,2000,20100    LEADWELL                     ST,34.2035,-118.571,330,91306
177,191719083,17,2019-12-08T00:00:00.000,1900,18700    BRYANT                       ST,34.2273,-118.5405,510,91324
178,191617340,16,2019-12-08T00:00:00.000,300,GLENOAKS                     BL,34.2316,-118.3682,440,91352
179,191617392,16,2019-12-08T00:00:00.000,1645,13000    CARL                         ST,34.2688,-118.4158,420,91331
180,191323530,13,2019-12-08T00:00:00.000,1830,200 E  54TH                         ST,33.9934,-118.272,624,90011
181,191228457,12,2019-12-08T00:00:00.000,445,7800 S  NORMANDIE                    AV,33.9692,-118.3003,230,90044
182,190819309,8,2019-12-08T00:00:00.000,1030,PACIFIC COAST                HY,34.0401,-118.5606,510,90272
183,190326038,3,2019-12-08T00:00:00.000,1500,5200 W  ADAMS                        BL,34.0325,-118.3552,624,90016
184,191824538,18,2019-12-08T00:00:00.000,1830,116TH                        ST,33.9292,-118.2622,210,90059
185,190128817,1,2019-12-08T00:00:00.000,2120,FRANCISCO,34.0504,-118.26100000000001,210,90017
186,191617355,16,2019-12-08T00:00:00.000,1950,10500    HADDON                       AV,34.2612,-118.4288,210,91331
187,191120607,11,2019-12-08T00:00:00.000,1000,3000    SILVER LAKE                  BL,34.1095,-118.256,354,90039
188,192119558,21,2019-12-08T00:00:00.000,1,19900    CALVERT                      ST,34.1812,-118.5648,230,91367
189,191920289,19,2019-12-08T00:00:00.000,530,14000    ARLEE                        PL,34.3266,-118.4234,480,91342
190,190128807,1,2019-12-08T00:00:00.000,1300,600 W  9TH                          ST,34.0462,-118.2585,624,90017
191,191323484,13,2019-12-08T00:00:00.000,100,1200 E  25TH                         ST,34.0186,-118.2519,626,90011
192,192021135,20,2019-12-08T00:00:00.000,2025,600 N  OXFORD                       AV,34.0817,-118.30799999999999,624,90004
193,190128781,1,2019-12-08T00:00:00.000,551,14TH                         ST,34.0356,-118.2625,110,90015
194,191323547,13,2019-12-08T00:00:00.000,2200,1200 E  55TH                         ST,33.993,-118.2543,627,90011
195,191323522,13,2019-12-08T00:00:00.000,1900,400 E  25TH                         ST,34.0244,-118.2648,624,90011
196,190920956,9,2019-12-08T00:00:00.000,1531,14600    TUSTIN                       ST,34.1467,-118.4538,901,91403
197,190623453,6,2019-12-08T00:00:00.000,1900,8000 W  SUNSET                       BL,34.098,-118.3645,624,90046
198,190417766,4,2019-12-08T00:00:00.000,2000,1600    NEW JERSEY                   ST,34.0509,-118.2194,745,90033
199,191228484,12,2019-12-08T00:00:00.000,645,5300    2ND                          AV,33.9951,-118.3193,745,90043
200,191228443,12,2019-12-08T00:00:00.000,1130,7100    10TH                         AV,33.9757,-118.32799999999999,761,90043
201,191120578,11,2019-12-08T00:00:00.000,200,2900    HYPERION                     AV,34.1092,-118.2714,626,90027
202,190326032,3,2019-12-08T00:00:00.000,450,3800 S  BRONSON                      AV,34.0172,-118.334,341,90008
203,190920996,9,2019-12-08T00:00:00.000,330,13300    VANOWEN                      ST,34.194,-118.4225,341,91405
204,191228445,12,2019-12-08T00:00:00.000,1940,5800 S  HOOVER                       ST,33.9888,-118.2871,510,90044
205,190720555,7,2019-12-08T00:00:00.000,1850,7200    ROSEWOOD                     AV,34.0803,-118.3462,900,90036
206,191120616,11,2019-12-08T00:00:00.000,2230,3800    LOS FELIZ                    BL,34.1145,-118.2756,330,90027
207,192021132,20,2019-12-08T00:00:00.000,1217,WESTMORELAND                 AV,34.0587,-118.2891,920,90005
208,191228465,12,2019-12-08T00:00:00.000,205,900 E  81ST                         ST,33.9656,-118.2586,624,90001
209,191425151,14,2019-12-08T00:00:00.000,1,00    WINDWARD                     AV,33.9872,-118.4731,420,90291
210,190417780,4,2019-12-08T00:00:00.000,2030,600    GIBBONS                      ST,34.0673,-118.2235,440,90031
211,191920335,19,2019-12-08T00:00:00.000,1000,8700    PARTHENIA                    PL,34.2286,-118.4644,510,91343
212,190326067,3,2019-12-08T00:00:00.000,1,2400    OBAMA                        BL,34.0222,-118.3227,930,90018
213,191617352,16,2019-12-08T00:00:00.000,455,9900    PINEWOOD                     AV,34.253,-118.2907,230,91042
214,191228497,12,2019-12-08T00:00:00.000,600,1000 W  55TH                         ST,33.9923,-118.2915,956,90037
215,192119560,21,2019-12-08T00:00:00.000,1100,7000    MILWOOD                      AV,34.1974,-118.5943,624,91303
216,190623441,6,2019-12-08T00:00:00.000,1230,6200    DE LONGPRE                   AV,34.0962,-118.3237,421,90028
217,190417767,4,2019-12-08T00:00:00.000,1800,500 S  CLARENCE                     ST,34.0409,-118.2234,745,90033
218,191228415,12,2019-12-08T00:00:00.000,5,65TH,33.9798,-118.309,210,90047
219,191521645,15,2019-12-08T00:00:00.000,1600,7100    BELLAIRE                     AV,34.1994,-118.4094,626,91605
220,191018781,10,2019-12-08T00:00:00.000,1400,7400    SHOSHONE                     AV,34.2047,-118.5163,956,91406
221,190128816,1,2019-12-08T00:00:00.000,2200,600 N  HILL                         ST,34.0591,-118.2412,236,90012
222,191425147,14,2019-12-08T00:00:00.000,1200,SUNSET,33.9933,-118.4765,930,90291
223,191824520,18,2019-12-08T00:00:00.000,1100,9100    ORCHARD                      AV,33.9542,-118.2881,626,90044
224,191521649,15,2019-12-08T00:00:00.000,2155,6100    LANKERSHIM                   BL,34.1813,-118.3845,210,91606
225,192021097,20,2019-12-08T00:00:00.000,815,900 S  WILTON                       PL,34.0559,-118.3142,930,90019
226,190128815,1,2019-12-08T00:00:00.000,1550,800 E  4TH                          ST,34.0433,-118.2377,745,90013
227,192119551,21,2019-12-08T00:00:00.000,615,6700    DE SOTO                      AV,34.1921,-118.5884,330,91306
228,191018767,10,2019-12-08T00:00:00.000,930,8100    CANBY                        AV,34.2176,-118.5343,440,91335
229,192119543,21,2019-12-08T00:00:00.000,1535,6700    TOPANGA CANYON               BL,34.1926,-118.6059,442,91303
230,190301117,3,2019-12-08T00:00:00.000,30,WESTERN                      AV,34.0327,-118.309,230,90018
231,191323552,13,2019-12-08T00:00:00.000,1800,14TH                         ST,34.0284,-118.2469,230,90021
232,192021128,20,2019-12-08T00:00:00.000,1030,400 S  KINGSLEY                     DR,34.0672,-118.3029,626,90020
233,192021094,20,2019-12-08T00:00:00.000,859,300 S  NORTON                       AV,34.069,-118.3173,341,90004
234,190901031,9,2019-12-08T00:00:00.000,1430,13200    OXNARD                       ST,34.1794,-118.4204,626,91401
235,190417714,4,2019-12-08T00:00:00.000,115,3300    BARBEE                       ST,34.0691,-118.2064,440,90031
236,190128792,1,2019-12-08T00:00:00.000,1340,700 W  7TH                          ST,34.048,-118.2577,442,90017
237,191425177,14,2019-12-08T00:00:00.000,1700,11800    ALLIN                        ST,33.9924,-118.4105,745,90230
238,190128769,1,2019-12-08T00:00:00.000,226,500 S  FLOWER                       ST,34.0516,-118.2561,740,90071
239,191323527,13,2019-12-08T00:00:00.000,1700,4500 S  ALAMEDA                      ST,34.0,-118.2389,510,90058
240,190128796,1,2019-12-08T00:00:00.000,150,18TH,34.042,-118.2625,626,90015
241,191920283,19,2019-12-08T00:00:00.000,1345,14200    AZTEC                        ST,34.2978,-118.4428,901,91342
242,192119562,21,2019-12-08T00:00:00.000,1800,7100    INDEPENDENCE                 AV,34.1992,-118.5906,761,91303
243,191920284,19,2019-12-08T00:00:00.000,830,9200    WAKEFIELD                    AV,34.2376,-118.4481,626,91402
244,191228437,12,2019-12-08T00:00:00.000,1500,8100 S  WESTERN                      AV,33.9655,-118.309,236,90047
245,190819322,8,2019-12-08T00:00:00.000,1745,1800 S  SEPULVEDA                    BL,34.0459,-118.4428,740,90025
246,190222943,2,2019-12-08T00:00:00.000,1050,200 N  TOLUCA                       ST,34.0633,-118.2575,624,90026
247,191425145,14,2019-12-08T00:00:00.000,1300,4200    MCLAUGHLIN                   AV,34.0051,-118.4222,626,90066
248,191824526,18,2019-12-08T00:00:00.000,430,CENTRAL                      AV,33.9433,-118.2541,236,90002
249,191617349,16,2019-12-08T00:00:00.000,955,11800    FOOTHILL                     BL,34.2772,-118.3979,623,91342
250,190920949,9,2019-12-08T00:00:00.000,900,6700 N  SEPULVEDA                    BL,34.1921,-118.4662,745,91406
251,191920290,19,2019-12-08T00:00:00.000,1330,9800    VESPER                       AV,34.2492,-118.4502,626,91402
252,190128824,1,2019-12-08T00:00:00.000,1700,1100    MAPLE                        AV,34.0388,-118.2574,740,90015
253,191425131,14,2019-12-08T00:00:00.000,30,400    WORLD                        WY,33.9433,-118.4072,626,90045
254,191920271,19,2019-12-08T00:00:00.000,130,8300    SEPULVEDA                    BL,34.2214,-118.4677,210,91402
255,192119561,21,2019-12-08T00:00:00.000,1100,7000    MILWOOD                      AV,34.1974,-118.5943,624,91303
256,191228464,12,2019-12-08T00:00:00.000,1550,900 W  SLAUSON                      AV,33.9892,-118.2892,341,90037
258,190819320,8,2019-12-08T00:00:00.000,1450,11900 W  OLYMPIC                      BL,34.0329,-118.4512,440,90064
259,190128808,1,2019-12-08T00:00:00.000,1130,2ND,34.0477,-118.2393,330,90012
260,191824560,18,2019-12-08T00:00:00.000,1945,9100    ORCHARD                      AV,33.9542,-118.2881,745,90044
261,191323501,13,2019-12-08T00:00:00.000,600,200 W  59TH                         ST,33.9869,-118.2761,420,90003
262,190128777,1,2019-12-08T00:00:00.000,620,800 N  ALAMEDA                      ST,34.0563,-118.2374,231,90012
263,190128851,1,2019-12-08T00:00:00.000,1800,600 E  8TH                          ST,34.0394,-118.2496,310,90014
264,191323500,13,2019-12-08T00:00:00.000,1535,AVALON                       BL,34.0138,-118.2653,210,90011
265,191617389,16,2019-12-08T00:00:00.000,350,12300    FOOTHILL                     BL,34.2828,-118.4038,510,91342
266,191323473,13,2019-12-08T00:00:00.000,10,3100 S  MAIN                         ST,34.021,-118.2712,310,90007
267,191228480,12,2019-12-08T00:00:00.000,2100,1600 W  47TH                         ST,34.001,-118.3067,510,90062
268,191521655,15,2019-12-08T00:00:00.000,1500,5600    WHITNALL                     HY,34.1735,-118.35799999999999,331,91505
269,191824515,18,2019-12-08T00:00:00.000,800,16300 S  VERMONT                      AV,33.8834,-118.2913,627,90247
270,191425150,14,2019-12-08T00:00:00.000,1810,12600    WOODGREEN                    ST,34.0086,-118.4409,310,90066
271,191228438,12,2019-12-08T00:00:00.000,920,62ND                         ST,33.9833,-118.29799999999999,230,90044
272,190519076,5,2019-12-08T00:00:00.000,230,18600 S  VERMONT                      AV,33.861999999999995,-118.2906,520,90248
273,190417742,4,2019-12-08T00:00:00.000,1450,3600    WHITTIER                     BL,34.0256,-118.1961,761,90023
274,190720595,7,2019-12-08T00:00:00.000,1700,700 N  SYCAMORE                     AV,34.0835,-118.3428,440,90038
275,192021121,20,2019-12-08T00:00:00.000,1830,8TH,34.0577,-118.3042,761,90005
276,191323513,13,2019-12-08T00:00:00.000,1855,4000    BROADWAY                     PL,34.0111,-118.2774,210,90037
277,190819318,8,2019-12-08T00:00:00.000,30,BRINGHAM                     AV,34.056999999999995,-118.4646,624,90049
278,190222935,2,2019-12-08T00:00:00.000,135,1200 W  11TH                         ST,34.0481,-118.2712,236,90015
279,190222949,2,2019-12-08T00:00:00.000,200,1800 W  PICO                         BL,34.0472,-118.2782,626,90015
280,192021144,20,2019-12-08T00:00:00.000,1200,200 S  IRVING                       BL,34.0713,-118.3184,740,90004
281,191228472,12,2019-12-08T00:00:00.000,2320,700 E  85TH                         ST,33.9611,-118.2629,230,90001
282,191120596,11,2019-12-08T00:00:00.000,2100,1000 W  AVENUE 37,34.0992,-118.2204,330,90065
283,191824504,18,2019-12-08T00:00:00.000,250,108TH                        ST,33.9383,-118.2826,230,90061
284,190128809,1,2019-12-08T00:00:00.000,1350,600 W  9TH                          ST,34.0462,-118.2585,624,90017
285,190819317,8,2019-12-08T00:00:00.000,300,8700 W  OLYMPIC                      BL,34.0594,-118.3814,745,90035
286,191120624,11,2019-12-08T00:00:00.000,2130,2000    RODNEY                       DR,34.1077,-118.2892,310,90027
287,190720568,7,2019-12-08T00:00:00.000,630,5000 W  20TH                         ST,34.0396,-118.3491,330,90016
288,190819330,8,2019-12-08T00:00:00.000,1920,10200    SANTA MONICA                 BL,34.0605,-118.4193,420,90067
289,190417761,4,2019-12-08T00:00:00.000,1130,3900    VAN HORNE                    AV,34.0948,-118.1751,110,90032
290,190519106,5,2019-12-08T00:00:00.000,430,1600    ALAMEDA                      ST,33.7875,-118.2423,480,90744
291,191601084,16,2019-12-08T00:00:00.000,1600,8600    FOOTHILL                     BL,34.2724,-118.3243,210,91040
292,191323466,13,2019-12-08T00:00:00.000,250,HOOPER                       AV,33.998000000000005,-118.2521,210,90011
293,191228450,12,2019-12-08T00:00:00.000,1100,8200 S  MAIN                         ST,33.9654,-118.2739,625,90003
294,191228456,12,2019-12-08T00:00:00.000,2140,4500 S  VAN NESS                     AV,34.0028,-118.3171,230,90062
295,190417713,4,2019-12-08T00:00:00.000,300,2400    MALABAR                      ST,34.0499,-118.2009,440,90033
296,191920331,19,2019-12-08T00:00:00.000,1600,12900    ADELPHIA                     AV,34.3055,-118.4306,341,91340
297,191323487,13,2019-12-08T00:00:00.000,500,1000 S  SANTA FE                     AV,34.0316,-118.23,210,90021
298,191920281,19,2019-12-08T00:00:00.000,200,10100 N  SEPULVEDA                    BL,34.2537,-118.4674,626,91345
299,191120585,11,2019-12-08T00:00:00.000,1400,1600 N  VERMONT                      AV,34.0986,-118.2962,440,90027
300,191323499,13,2019-12-08T00:00:00.000,1430,300 E  42ND                         PL,34.0066,-118.2709,626,90011
301,191719076,17,2019-12-08T00:00:00.000,1308,11100    BALBOA                       BL,34.2757,-118.5144,343,91344
302,191120582,11,2019-12-08T00:00:00.000,1055,LOS FELIZ,34.1367,-118.2713,230,90039
303,190417760,4,2019-12-08T00:00:00.000,2030,4900    GAMBIER                      ST,34.080999999999996,-118.1769,624,90032
304,190222951,2,2019-12-08T00:00:00.000,1900,400 S  BURLINGTON                   AV,34.0605,-118.2694,624,90057
305,191120562,11,2019-12-08T00:00:00.000,200,5100    YORK                         BL,34.1211,-118.2048,745,90042
306,190326041,3,2019-12-08T00:00:00.000,1330,4400    11TH                         AV,34.0037,-118.3294,624,90008
307,190222988,2,2019-12-08T00:00:00.000,2030,BELMONT,34.0621,-118.2619,331,90057
308,191018757,10,2019-12-08T00:00:00.000,2210,17800    MIRANDA                      ST,34.1746,-118.5198,624,91316
309,190417762,4,2019-12-08T00:00:00.000,900,CUMMINGS,34.0512,-118.2093,510,90033
310,190222973,2,2019-12-08T00:00:00.000,1800,400    HARTFORD                     AV,34.0555,-118.2647,740,90017
312,191920285,19,2019-12-08T00:00:00.000,1616,14500    NORDHOFF                     ST,34.2354,-118.4481,442,91402
313,190222993,2,2019-12-08T00:00:00.000,1100,1300    TOBERMAN                     ST,34.0442,-118.2758,330,90015
314,190819331,8,2019-12-08T00:00:00.000,1300,SAWTELLE                     BL,34.0328,-118.4366,330,90064
315,190417748,4,2019-12-08T00:00:00.000,40,3000    GLENN                        AV,34.0228,-118.2133,230,90023
316,191120574,11,2019-12-08T00:00:00.000,1510,1500 N  VERMONT                      AV,34.0982,-118.2918,888,90027
317,190623477,6,2019-12-08T00:00:00.000,120,WILCOX,34.1016,-118.3311,624,90028
318,191323491,13,2019-12-08T00:00:00.000,1050,900 E  11TH                         ST,34.0329,-118.2493,930,90021
319,191120577,11,2019-12-08T00:00:00.000,1500,5300    LONGFELLOW                   ST,34.1074,-118.1978,510,90042
320,191824569,18,2019-12-08T00:00:00.000,2300,800 W  CENTURY                      BL,33.9455,-118.2893,210,90044
321,190623482,6,2019-12-08T00:00:00.000,1800,5700    LA MIRADA                    AV,34.0938,-118.3136,420,90038
322,191521651,15,2019-12-08T00:00:00.000,920,12400    MOORPARK                     ST,34.1504,-118.40299999999999,625,91604
323,191018727,10,2019-12-08T00:00:00.000,1000,6600    WILBUR                       AV,34.1902,-118.5448,626,91335
324,191228501,12,2019-12-08T00:00:00.000,3,600 W  FLORENCE                     AV,33.9747,-118.2838,648,90044
325,190326088,3,2019-12-08T00:00:00.000,2000,7TH                          AV,34.0278,-118.3378,510,90016
326,190623444,6,2019-12-08T00:00:00.000,1030,SUNSET,34.098,-118.3416,330,90028
327,191120587,11,2019-12-08T00:00:00.000,1000,2300    NELLA VISTA                  AV,34.114000000000004,-118.2834,310,90027
328,191824521,18,2019-12-08T00:00:00.000,1616,105TH                        ST,33.9406,-118.2358,624,90002
329,190326047,3,2019-12-08T00:00:00.000,1925,3900 S  FIGUEROA                     ST,34.0146,-118.2872,624,90037
330,191617378,16,2019-12-08T00:00:00.000,2330,7500    SAN FERNANDO                 RD,34.2077,-118.3524,510,91352
331,191425153,14,2019-12-08T00:00:00.000,1710,1300    ABBOT KINNEY                 BL,33.9956,-118.4722,341,90291
333,191824540,18,2019-12-08T00:00:00.000,1600,10900 S  CENTRAL                      AV,33.9368,-118.2542,210,90059
334,190222954,2,2019-12-08T00:00:00.000,1930,2000 W  PICO                         BL,34.0467,-118.2814,230,90006
335,190417753,4,2019-12-08T00:00:00.000,1840,600 S  BOYLE                        AV,34.0386,-118.2201,350,90023
336,191521664,15,2019-12-08T00:00:00.000,320,6200    BABCOCK                      AV,34.1831,-118.4063,888,91606
337,190623450,6,2019-12-08T00:00:00.000,1513,5800    FRANKLIN                     AV,34.1084,-118.3213,442,90068
338,191000983,10,2019-12-08T00:00:00.000,1655,16400    VENTURA                      BL,34.1613,-118.4917,220,91436
339,191018777,10,2019-12-08T00:00:00.000,2300,18900    FRIAR                        ST,34.1857,-118.545,740,91335
340,191000984,10,2019-12-08T00:00:00.000,1835,7600    RESEDA                       BL,34.2148,-118.5404,310,91335
341,190128811,1,2019-12-08T00:00:00.000,1700,1100 S  FLOWER                       ST,34.043,-118.2641,624,90015
342,190623446,6,2019-12-08T00:00:00.000,1430,6400    SANTA MONICA                 BL,34.0908,-118.3289,740,90038
343,190920966,9,2019-12-08T00:00:00.000,2050,6400    SEPULVEDA                    BL,34.1867,-118.4662,331,91411
344,190417752,4,2019-12-08T00:00:00.000,1415,2500 E  6TH                          ST,34.037,-118.2127,310,90023
345,190819365,8,2019-12-08T00:00:00.000,1900,2200    BAGLEY                       AV,34.0426,-118.3919,420,90034
346,190623478,6,2019-12-08T00:00:00.000,120,WILCOX,34.1016,-118.3311,230,90028
347,190222957,2,2019-12-08T00:00:00.000,1940,1900 W  8TH                          ST,34.0539,-118.2756,761,90057
348,191228417,12,2019-12-08T00:00:00.000,125,6400 S  VERMONT                      AV,33.9787,-118.2918,210,90044
349,192021079,20,2019-12-08T00:00:00.000,750,WILSHIRE,34.0618,-118.2916,624,90010
350,190222953,2,2019-12-08T00:00:00.000,1100,ROSEMONT,34.0747,-118.2686,740,90026
351,191719121,17,2019-12-08T00:00:00.000,1700,8800    CORBIN                       AV,34.2304,-118.5623,442,91324
352,190222920,2,2019-12-08T00:00:00.000,210,1500 W  PICO                         BL,34.0453,-118.2738,230,90015
353,191425158,14,2019-12-08T00:00:00.000,1850,8000    GEORGETOWN                   AV,33.9667,-118.4181,933,90045
354,190417756,4,2019-12-08T00:00:00.000,2030,4900    GAMBIER                      ST,34.080999999999996,-118.1769,930,90032
355,190519129,5,2019-12-08T00:00:00.000,1100,25500    BAYSIDE                      PL,33.7928,-118.2916,330,90710
356,190326033,3,2019-12-08T00:00:00.000,1130,JEFFERSON,34.0289,-118.3563,930,90016
357,191425146,14,2019-12-08T00:00:00.000,1600,700    APPELBY                      ST,34.0029,-118.4628,310,90291
358,191120586,11,2019-12-08T00:00:00.000,1815,4800    LEXINGTON                    AV,34.0935,-118.2937,626,90029
359,191000982,10,2019-12-08T00:00:00.000,1845,TAMPA,34.1866,-118.5535,237,91335
360,191018718,10,2019-12-08T00:00:00.000,1415,16600    ROSCOE                       BL,34.2207,-118.4943,888,91343
361,191228483,12,2019-12-08T00:00:00.000,310,6200    LONG                         ST,33.9852,-118.3463,745,90043
362,190128786,1,2019-12-08T00:00:00.000,800,1300 S  HILL                         ST,34.0363,-118.2672,331,90015
363,192119556,21,2019-12-08T00:00:00.000,400,21000    ERWIN                        ST,34.1827,-118.5903,624,91367
364,190720527,7,2019-12-08T00:00:00.000,1120,STANLEY,34.0837,-118.3564,230,90046
365,190222937,2,2019-12-08T00:00:00.000,310,400 S  LAKE                         ST,34.0621,-118.2747,626,90057
366,191228466,12,2019-12-08T00:00:00.000,1645,68TH                         ST,33.9782,-118.2827,210,90003
367,191323537,13,2019-12-08T00:00:00.000,2100,4600 S  BROADWAY,34.001999999999995,-118.2783,420,90037
368,191323495,13,2019-12-08T00:00:00.000,1230,5500    LONG BEACH                   AV,33.993,-118.2432,624,90058
369,191425194,14,2019-12-08T00:00:00.000,1800,10800    QUEENSLAND                   ST,34.0291,-118.4186,420,90034
370,191228482,12,2019-12-08T00:00:00.000,205,1500 W  97TH                         ST,33.9478,-118.3025,740,90047
371,190920961,9,2019-12-08T00:00:00.000,2200,SEPULVEDA,34.1985,-118.4662,230,91406
372,191521656,15,2019-12-08T00:00:00.000,225,3200    CAHUENGA                     BL,34.1284,-118.3472,230,90068
373,190920963,9,2019-12-08T00:00:00.000,1915,13100    VICTORY                      BL,34.1867,-118.4181,440,91401
374,190819329,8,2019-12-08T00:00:00.000,1725,1800 S  BENTLEY                      AV,34.0465,-118.44200000000001,210,90025
375,191824505,18,2019-12-08T00:00:00.000,1000,CENTRAL                      AV,33.931,-118.2542,420,90059
376,191018737,10,2019-12-08T00:00:00.000,650,SATICOY                      ST,34.2084,-118.5579,230,91335
377,191920320,19,2019-12-08T00:00:00.000,1900,8800    WILLIS                       AV,34.23,-118.4553,420,91402
378,190326042,3,2019-12-08T00:00:00.000,1500,42ND                         ST,34.007,-118.2872,510,90037
379,190128821,1,2019-12-08T00:00:00.000,1700,1100    MAPLE                        AV,34.0388,-118.2574,220,90015
380,190720575,7,2019-12-08T00:00:00.000,1800,400 N  GENESEE                      AV,34.0782,-118.3584,331,90036
381,190326063,3,2019-12-08T00:00:00.000,2100,27TH                         ST,34.0274,-118.2773,626,90007
382,191228486,12,2019-12-08T00:00:00.000,1600,5400    CRENSHAW                     BL,33.9931,-118.3308,510,90043
383,191323498,13,2019-12-08T00:00:00.000,300,3400 S  HILL                         ST,34.0197,-118.2749,210,90007
384,190326046,3,2019-12-08T00:00:00.000,245,2600    WEST                         BL,34.0326,-118.3416,740,90016
385,190326004,3,2019-12-08T00:00:00.000,145,4700    TACANA                       ST,34.0163,-118.3507,920,90008
386,191018758,10,2019-12-08T00:00:00.000,2100,17900    SHERMAN                      WY,34.201,-118.5229,330,91335
387,190128814,1,2019-12-08T00:00:00.000,1720,400 S  BROADWAY,34.0495,-118.2494,930,90013
388,191228436,12,2019-12-08T00:00:00.000,1500,3400 W  63RD                         ST,33.9829,-118.3309,230,90043
389,190128802,1,2019-12-08T00:00:00.000,1814,500    MAPLE                        AV,34.0454,-118.2466,740,90013
390,190519103,5,2019-12-08T00:00:00.000,1215,2800    CAROLINA                     ST,33.7188,-118.2907,626,90731
391,191425128,14,2019-12-08T00:00:00.000,1015,6900    LA TIJERA                    BL,33.9761,-118.3732,624,90045
392,191425140,14,2019-12-08T00:00:00.000,900,6800 S  LA CIENEGA                   BL,33.9761,-118.3726,626,90045
393,190417739,4,2019-12-08T00:00:00.000,1100,2200    INEZ                         ST,34.0375,-118.2168,745,90023
394,191120588,11,2019-12-08T00:00:00.000,1845,2600    COLORADO                     BL,34.1422,-118.223,341,90041
395,191228462,12,2019-12-08T00:00:00.000,1030,85TH                         ST,33.961,-118.2919,626,90044
396,190326062,3,2019-12-08T00:00:00.000,2120,2900 S  WESTERN                      AV,34.0282,-118.3133,236,90018
397,190326043,3,2019-12-08T00:00:00.000,837,600 W  JEFFERSON                    BL,34.0268,-118.2808,762,90007
398,191120621,11,2019-12-08T00:00:00.000,2130,2000    RODNEY                       DR,34.1077,-118.2892,510,90027
399,190326039,3,2019-12-08T00:00:00.000,10,ADAMS                        BL,34.0293,-118.2785,626,90007
400,191425149,14,2019-12-08T00:00:00.000,1625,3300    BUTLER                       AV,34.0204,-118.4305,624,90066
401,190128831,1,2019-12-08T00:00:00.000,2300,BERNARD                      ST,34.0673,-118.2372,510,90012
402,191120613,11,2019-12-08T00:00:00.000,700,4800    HOLLYWOOD                    BL,34.1095,-118.2958,330,90027
403,190326027,3,2019-12-08T00:00:00.000,130,5200 W  JEFFERSON                    BL,34.0255,-118.3581,310,90016
404,190128782,1,2019-12-08T00:00:00.000,1120,600 S  SPRING                       ST,34.0467,-118.25200000000001,624,90013
405,192021115,20,2019-12-08T00:00:00.000,330,1900    CIMARRON                     ST,34.0399,-118.3155,626,90018
406,190222941,2,2019-12-08T00:00:00.000,900,300 S  WESTLAKE                     AV,34.0625,-118.2714,745,90057
407,190128774,1,2019-12-08T00:00:00.000,625,8TH,34.0459,-118.2579,210,90017
408,191018730,10,2019-12-08T00:00:00.000,1800,8100    LINDLEY                      AV,34.2146,-118.5317,930,91335
409,190800811,8,2019-12-08T00:00:00.000,1555,9900    ANTHONY                      PL,34.1036,-118.4321,626,90210
410,190519094,5,2019-12-08T00:00:00.000,730,1300 N  AVALON                       BL,33.7888,-118.2631,888,90744
411,190519114,5,2019-12-08T00:00:00.000,2330,18600    NEW HAMPSHIRE                AV,33.861999999999995,-118.2916,487,90248
412,191425124,14,2019-12-08T00:00:00.000,230,12400 W  JEFFERSON                    BL,33.9782,-118.42200000000001,236,90066
413,191920291,19,2019-12-08T00:00:00.000,1200,9000    BURNET                       AV,34.2337,-118.4632,901,91343
414,191719065,17,2019-12-08T00:00:00.000,900,16500    DEVONSHIRE                   ST,34.2612,-118.4957,626,91344
415,191228492,12,2019-12-08T00:00:00.000,2130,7800    LA SALLE                     AV,33.9691,-118.3057,623,90047
416,191228467,12,2019-12-08T00:00:00.000,1745,200 E  73RD                         ST,33.9739,-118.2717,900,90003
417,191920280,19,2019-12-08T00:00:00.000,320,14000    TYLER                        ST,34.3236,-118.4383,236,91342
418,190623428,6,2019-12-08T00:00:00.000,130,SCHRADER,34.1016,-118.3325,210,90028
419,190223008,2,2019-12-08T00:00:00.000,1700,400    CORONADO                     TR,34.071999999999996,-118.2722,740,90026
420,190720541,7,2019-12-08T00:00:00.000,1700,6200    COMMODORE SLOAT              DR,34.0584,-118.3655,888,90035
421,191018762,10,2019-12-08T00:00:00.000,2130,7400    SHIRLEY                      AV,34.2047,-118.5579,420,91335
422,190222952,2,2019-12-08T00:00:00.000,1800,400    CORONADO                     TR,34.071999999999996,-118.2722,740,90026
423,192119557,21,2019-12-08T00:00:00.000,100,5300    SHOUP                        AV,34.1673,-118.6139,230,91364
424,191200905,12,2019-12-08T00:00:00.000,900,6100    11TH                         AV,33.9846,-118.3294,740,90043
425,190720479,7,2019-12-08T00:00:00.000,2,2200    CRENSHAW                     BL,34.0375,-118.335,310,90016
426,191228488,12,2019-12-08T00:00:00.000,300,1600 W  FLORENCE                     AV,33.979,-118.3112,440,90047
427,191323517,13,2019-12-08T00:00:00.000,1500,1400 E  51ST                         ST,33.9967,-118.2499,740,90011
428,191824499,18,2019-12-08T00:00:00.000,200,700 W  155TH                        ST,33.8908,-118.2877,510,90247
429,191521652,15,2019-12-08T00:00:00.000,845,3400    CAHUENGA                     BL,34.1316,-118.352,330,90068
430,190401467,4,2019-12-08T00:00:00.000,40,3000    GLENN                        AV,34.0228,-118.2133,230,90023
431,191521633,15,2019-12-08T00:00:00.000,910,13000    VANOWEN                      ST,34.194,-118.4163,510,91605
432,191824557,18,2019-12-08T00:00:00.000,1700,101ST                        ST,33.9447,-118.2739,745,90003
433,190519108,5,2019-12-08T00:00:00.000,1630,77TH                         ST,33.741,-118.2838,510,90731
434,191018766,10,2019-12-08T00:00:00.000,600,7700    BALBOA                       BL,34.2105,-118.5011,624,91406
435,190920984,9,2019-12-08T00:00:00.000,200,14500    HUSTON                       ST,34.1594,-118.4487,510,91403
436,191824553,18,2019-12-08T00:00:00.000,2000,300 E  99TH                         ST,33.9465,-118.2695,420,90003
437,191824564,18,2019-12-08T00:00:00.000,2200,1100 E  113TH                        ST,33.9319,-118.257,236,90059
438,191228449,12,2019-12-08T00:00:00.000,1840,100 E  75TH                         ST,33.9722,-118.2739,626,90003
439,192119542,21,2019-12-08T00:00:00.000,2040,8900    TOPANGA CANYON               BL,34.2315,-118.6029,664,91304
440,191425148,14,2019-12-08T00:00:00.000,1500,3700    MILITARY                     AV,34.0168,-118.4156,440,90034
441,191824562,18,2019-12-08T00:00:00.000,2000,10300    AVALON                       BL,33.946999999999996,-118.2684,740,90003
442,190401468,4,2019-12-08T00:00:00.000,1635,101                          FY,34.0386,-118.2201,753,90023
443,190720590,7,2019-12-08T00:00:00.000,1900,6200 W  3RD                          ST,34.0708,-118.3563,815,90036
444,191228426,12,2019-12-08T00:00:00.000,1010,300 W  80TH                         ST,33.9669,-118.2783,310,90003
445,192021149,20,2019-12-08T00:00:00.000,1730,1400 W  VENICE                       BL,34.0457,-118.2878,745,90006
447,191521659,15,2019-12-08T00:00:00.000,1000,12400    SYLVAN                       ST,34.1849,-118.4038,420,91606
448,190901029,9,2019-12-08T00:00:00.000,1300,7300    VAN NUYS                     BL,34.2048,-118.4531,350,91405
449,191425125,14,2019-12-08T00:00:00.000,400,WINDWARD,33.9871,-118.4733,440,90291
450,191920278,19,2019-12-08T00:00:00.000,1830,8100    TILDEN                       AV,34.218,-118.4473,510,91402
451,191824535,18,2019-12-08T00:00:00.000,1200,400 E  109TH                        ST,33.9374,-118.2681,341,90061
452,190326044,3,2019-12-08T00:00:00.000,2150,4100    SOMERSET                     DR,34.0116,-118.3412,210,90008
453,191425162,14,2019-12-08T00:00:00.000,1741,11900 W  JEFFERSON                    BL,33.9852,-118.4031,930,90230
455,191521689,15,2019-12-08T00:00:00.000,1900,11300    OXNARD                       ST,34.1849,-118.3746,510,91606
457,190623455,6,2019-12-08T00:00:00.000,100,6400    SELMA                        AV,34.0998,-118.3295,352,90028
458,190519130,5,2019-12-08T00:00:00.000,300,100 W  PACIFIC COAST                HY,33.7948,-118.2694,442,90744
459,190128798,1,2019-12-08T00:00:00.000,1815,600 S  SPRING                       ST,34.0467,-118.25200000000001,624,90013
460,191018742,10,2019-12-08T00:00:00.000,600,5500    CAHILL                       ST,34.1796,-118.5491,236,91356
461,190417750,4,2019-12-08T00:00:00.000,1650,100 S  CLARENCE                     ST,34.0475,-118.2241,626,90033
462,190720538,7,2019-12-08T00:00:00.000,1750,5600    WILSHIRE                     BL,34.0633,-118.3473,625,90036
463,190720529,7,2019-12-08T00:00:00.000,2134,300 N  EDINBURGH                    AV,34.0761,-118.3637,310,90048
464,190326069,3,2019-12-08T00:00:00.000,1600,3600    9TH                          AV,34.023,-118.3272,624,90018
465,191120595,11,2019-12-08T00:00:00.000,2000,3800    SHANNON                      RD,34.1193,-118.2777,330,90027
466,190326068,3,2019-12-08T00:00:00.000,2025,EXPOSITION                   BL,34.0183,-118.289,624,90007
467,190222942,2,2019-12-08T00:00:00.000,1050,200 N  TOLUCA                       ST,34.0633,-118.2575,624,90026
469,190222962,2,2019-12-08T00:00:00.000,2100,7TH,34.0509,-118.2642,510,90017
470,191824572,18,2019-12-08T00:00:00.000,2100,900 E  90TH                         ST,33.9547,-118.2586,420,90002
471,191719112,17,2019-12-08T00:00:00.000,324,12200    BALBOA                       BL,34.287,-118.507,310,91344
472,192021100,20,2019-12-08T00:00:00.000,730,2400 W  PICO                         BL,34.0499,-118.2879,330,90006
473,192021111,20,2019-12-08T00:00:00.000,2210,1600 W  VENICE                       BL,34.0443,-118.2885,930,90006
474,191228419,12,2019-12-08T00:00:00.000,220,7200 S  FIGUEROA                     ST,33.9747,-118.2827,310,90044
475,192021025,20,2019-12-07T00:00:00.000,657,100    BIMINI                       PL,34.0731,-118.2905,310,90004
476,191228422,12,2019-12-07T00:00:00.000,1300,54TH,33.9932,-118.316,341,90062
477,190128760,1,2019-12-07T00:00:00.000,1330,1000 W  8TH                          ST,34.0487,-118.2627,510,90017
478,190519065,5,2019-12-07T00:00:00.000,1530,8TH                          ST,33.7369,-118.2814,230,90731
479,190720469,7,2019-12-07T00:00:00.000,1200,800 N  KILKEA                       DR,34.0855,-118.367,626,90046
480,191824512,18,2019-12-07T00:00:00.000,2330,11500    GORMAN                       AV,33.9306,-118.2318,745,90059
481,191719070,17,2019-12-07T00:00:00.000,1655,9300    TAMPA                        AV,34.244,-118.5583,343,91324
482,190501086,5,2019-12-07T00:00:00.000,2200,20600 S  WESTERN                      AV,33.8438,-118.3093,230,90501
483,191521603,15,2019-12-07T00:00:00.000,55,6100    BONNER                       AV,34.1813,-118.3741,626,91606
484,190128717,1,2019-12-07T00:00:00.000,230,800 E  6TH                          ST,34.0408,-118.2428,230,90021
485,190222883,2,2019-12-07T00:00:00.000,200,7TH,34.0523,-118.2676,510,90017
486,191323524,13,2019-12-07T00:00:00.000,1830,5200    DUARTE                       ST,33.9955,-118.2423,510,90058
487,190501084,5,2019-12-07T00:00:00.000,2240,1500 W  227TH                        ST,33.8202,-118.3037,230,90501
488,191323462,13,2019-12-07T00:00:00.000,1600,1700 E  7TH                          ST,34.0348,-118.2362,440,90021
489,190720513,7,2019-12-07T00:00:00.000,340,1300    12TH                         AV,34.0476,-118.3245,740,90019
490,191228477,12,2019-12-07T00:00:00.000,2330,1200 W  60TH                         PL,33.985,-118.2958,330,90044
491,191617315,16,2019-12-07T00:00:00.000,745,11700    FOOTHILL                     BL,34.2735,-118.3866,220,91342
492,190222948,2,2019-12-07T00:00:00.000,2230,4400    LOCKWOOD                     AV,34.0887,-118.2893,626,90029
493,190326024,3,2019-12-07T00:00:00.000,2300,4100    LEIMERT                      BL,34.01,-118.3239,510,90008
494,190920927,9,2019-12-07T00:00:00.000,2130,6600    SEPULVEDA                    BL,34.1938,-118.4702,626,91406
495,191824476,18,2019-12-07T00:00:00.000,1000,CENTRAL                      AV,33.9457,-118.2541,230,90002
496,190222907,2,2019-12-07T00:00:00.000,1315,1900 W  7TH                          ST,34.0554,-118.2745,230,90057
497,191120545,11,2019-12-07T00:00:00.000,2230,1500    GLENDALE                     BL,34.0819,-118.2601,442,90026
498,191521602,15,2019-12-07T00:00:00.000,2215,6200    COLDWATER CANYON             AV,34.1831,-118.4137,510,91606
499,191501432,15,2019-12-07T00:00:00.000,145,7300    WOODROW WILSON               DR,34.1226,-118.3515,341,90046
500,191323474,13,2019-12-07T00:00:00.000,2230,23RD                         ST,34.0242,-118.2623,330,90011
501,190417700,4,2019-12-07T00:00:00.000,1700,1600    SAN PABLO                    ST,34.064,-118.2026,310,90033
502,192119517,21,2019-12-07T00:00:00.000,940,21200    DE LA OSA                    ST,34.1602,-118.5935,626,91364
503,190920980,9,2019-12-07T00:00:00.000,1400,5000    WOODMAN                      AV,34.1613,-118.4312,420,91423
504,190128779,1,2019-12-07T00:00:00.000,1620,100 W  7TH                          ST,34.0446,-118.2507,442,90014
505,190623421,6,2019-12-07T00:00:00.000,1530,700    VINE                         ST,34.0835,-118.3266,440,90038
506,192119525,21,2019-12-07T00:00:00.000,2026,7900    OWENSMOUTH                   AV,34.2137,-118.6016,330,91304
507,191901278,19,2019-12-07T00:00:00.000,250,13700    ROSCOE                       BL,34.2217,-118.4317,624,91402
508,190326034,3,2019-12-07T00:00:00.000,1500,4200 S  HOOVER                       ST,34.0071,-118.2872,433,90037
509,190519084,5,2019-12-07T00:00:00.000,1420,1800    NEWPORT                      TR,33.7283,-118.3112,956,90732
510,190519091,5,2019-12-07T00:00:00.000,1720,2400    CAROLINA                     ST,33.7219,-118.2911,510,90731
511,192021099,20,2019-12-07T00:00:00.000,1800,700 S  CATALINA                     ST,34.0598,-118.2954,745,90005
512,190920928,9,2019-12-07T00:00:00.000,2130,13400    VICTORY                      BL,34.1867,-118.4247,220,91401
513,190128768,1,2019-12-07T00:00:00.000,2330,500 S  FLOWER                       ST,34.0516,-118.2561,236,90071
514,192021053,20,2019-12-07T00:00:00.000,5,200 S  KENMORE                      AV,34.0712,-118.2966,626,90004
515,191018710,10,2019-12-07T00:00:00.000,2200,18900    SHERMAN                      WY,34.2011,-118.5448,510,91335
516,191617353,16,2019-12-07T00:00:00.000,943,11500    WHEELER                      AV,34.2787,-118.3903,903,91342
517,190623449,6,2019-12-07T00:00:00.000,2110,1800 N  ARGYLE                       AV,34.1037,-118.3252,624,90028
518,191719055,17,2019-12-07T00:00:00.000,1100,10900    HAYVENHURST                  AV,34.2684,-118.4935,624,91344
519,190325968,3,2019-12-07T00:00:00.000,420,3900    COCO                         AV,34.0155,-118.3497,745,90008
520,190901027,9,2019-12-07T00:00:00.000,1645,4900    VAN NUYS                     BL,34.162,-118.45700000000001,230,91403
521,190128756,1,2019-12-07T00:00:00.000,2130,900 W  OLYMPIC                      BL,34.0454,-118.2657,624,90015
522,191617320,16,2019-12-07T00:00:00.000,2000,6200    FOOTHILL                     BL,34.2408,-118.2667,442,91214
524,191323422,13,2019-12-07T00:00:00.000,915,1700 E  21ST                         ST,34.0178,-118.2429,331,90058
525,191120550,11,2019-12-07T00:00:00.000,2130,BENTON                       WY,34.0865,-118.2666,510,90026
526,191920287,19,2019-12-07T00:00:00.000,1800,8700    LANGDON                      AV,34.2283,-118.4699,624,91343
527,191425134,14,2019-12-07T00:00:00.000,2200,INGLEWOOD,34.0102,-118.4321,420,90066
528,191228403,12,2019-12-07T00:00:00.000,1300,3100 W  74TH                         ST,33.9728,-118.3265,888,90043
529,190519066,5,2019-12-07T00:00:00.000,1530,8TH                          ST,33.7369,-118.2814,230,90731
530,190819319,8,2019-12-07T00:00:00.000,1515,11000 W  PICO                         BL,34.0383,-118.4324,624,90064
531,191228463,12,2019-12-07T00:00:00.000,1,3300 W  77TH                         ST,33.97,-118.3298,761,90043
532,191719078,17,2019-12-07T00:00:00.000,1530,10300    OWENSMOUTH                   AV,34.2572,-118.6017,236,91311
533,191323489,13,2019-12-07T00:00:00.000,2045,1200 E  41ST                         ST,34.0093,-118.2543,626,90011
534,191018697,10,2019-12-07T00:00:00.000,1520,16100    VICTORY                      BL,34.1903,-118.48,442,91406
535,191521647,15,2019-12-07T00:00:00.000,130,11100    MAGNOLIA                     BL,34.1649,-118.3724,220,91601
536,190417745,4,2019-12-07T00:00:00.000,1000,600    CLOVER                       ST,34.0667,-118.2211,420,90031
537,190623424,6,2019-12-07T00:00:00.000,900,5700 W  SUNSET                       BL,34.0998,-118.3211,330,90028
538,190325989,3,2019-12-07T00:00:00.000,1630,4300 S  HOBART                       BL,34.0053,-118.3078,510,90062
539,191920276,19,2019-12-07T00:00:00.000,2230,8200    LEXNOX                       AV,34.2153,-118.4409,510,91402
540,190501087,5,2019-12-07T00:00:00.000,2200,20600 S  WESTERN                      AV,33.8438,-118.3093,230,90501
541,190519120,5,2019-12-07T00:00:00.000,2332,1300    DRUMM                        AV,33.7932,-118.2432,440,90744
542,191824507,18,2019-12-07T00:00:00.000,1800,700    CALIBURN                     DR,33.9573,-118.2629,510,90002
543,190819253,8,2019-12-07T00:00:00.000,10,1600 S  SEPULVEDA                    BL,34.0492,-118.4456,510,90025
544,190819327,8,2019-12-07T00:00:00.000,2200,10800    ASHBY                        AV,34.0375,-118.4248,510,90064
545,191425133,14,2019-12-07T00:00:00.000,1545,3400 S  SEPULVEDA                    BL,34.0212,-118.4238,330,90034
546,190623417,6,2019-12-07T00:00:00.000,130,5200    SANTA MONICA                 BL,34.0908,-118.3029,745,90029
547,192119532,21,2019-12-07T00:00:00.000,2220,21900    VANOWEN                      ST,34.1938,-118.6044,442,91303
548,191323503,13,2019-12-07T00:00:00.000,1100,SAN PEDRO                    ST,34.0286,-118.2568,813,90015
549,191824470,18,2019-12-07T00:00:00.000,700,300 E  111TH                        ST,33.9348,-118.2695,210,90061
550,190222919,2,2019-12-07T00:00:00.000,1500,1100 W  17TH                         ST,34.0406,-118.2798,236,90015
551,190819300,8,2019-12-07T00:00:00.000,1230,17300 W  SUNSET                       BL,34.0419,-118.554,442,90272
552,190222987,2,2019-12-07T00:00:00.000,2300,100    GLENDALE                     BL,34.062,-118.2596,331,90026
554,190326007,3,2019-12-07T00:00:00.000,1950,24TH                         ST,34.034,-118.3133,230,90018
555,190623436,6,2019-12-07T00:00:00.000,1610,HOLLYWOOD,34.1017,-118.3224,350,90028
556,191521607,15,2019-12-07T00:00:00.000,1130,6500    LANKERSHIM                   BL,34.1887,-118.3877,230,91606
557,190417683,4,2019-12-07T00:00:00.000,525,2700    WYNWOOD                      LN,34.0264,-118.2179,110,90023
558,192021067,20,2019-12-07T00:00:00.000,2155,100 S  NORMANDIE                    AV,34.0726,-118.3029,230,90004
559,190326019,3,2019-12-07T00:00:00.000,1950,24TH                         ST,34.034,-118.3133,740,90018
560,190623414,6,2019-12-07T00:00:00.000,215,5900    HOLLYWOOD                    BL,34.103,-118.3225,230,90028
561,192021095,20,2019-12-07T00:00:00.000,2230,1900 S  VERMONT                      AV,34.0385,-118.2959,330,90007
562,190417743,4,2019-12-07T00:00:00.000,2112,1200 N  MISSION                      RD,34.0651,-118.2116,740,90031
563,191120558,11,2019-12-07T00:00:00.000,2130,4300    GLENMUIR                     AV,34.0975,-118.211,330,90065
564,192021075,20,2019-12-07T00:00:00.000,1200,900 S  SERRANO                      AV,34.0559,-118.3066,420,90006
565,190920921,9,2019-12-07T00:00:00.000,1145,14400    BURBANK                      BL,34.1721,-118.4463,440,91401
566,191018728,10,2019-12-07T00:00:00.000,1530,6500    ODESSA                       AV,34.1889,-118.4902,624,91406
567,191521608,15,2019-12-07T00:00:00.000,1130,6500    LANKERSHIM                   BL,34.1887,-118.3877,230,91606
568,190301116,3,2019-12-07T00:00:00.000,1950,24TH                         ST,34.034,-118.3133,230,90018
569,191901279,19,2019-12-07T00:00:00.000,530,9200    SEPULVEDA                    BL,34.2427,-118.4702,310,91343
570,191228444,12,2019-12-07T00:00:00.000,800,3200 W  60TH                         ST,33.9872,-118.3277,626,90043
572,192119505,21,2019-12-07T00:00:00.000,2010,21000    VENTURA                      BL,34.1667,-118.5908,210,91364
573,191018706,10,2019-12-07T00:00:00.000,1530,16100    VICTORY                      BL,34.1903,-118.48,442,91406
574,191920258,19,2019-12-07T00:00:00.000,1400,13900    KINBROOK                     ST,34.3257,-118.436,624,91342
575,190623406,6,2019-12-07T00:00:00.000,1445,5400 W  SUNSET                       BL,34.0981,-118.3071,420,90027
576,191323480,13,2019-12-07T00:00:00.000,2000,1200 S  NAOMI                        AV,34.0287,-118.2435,740,90021
577,191323424,13,2019-12-07T00:00:00.000,1600,4300    HOOPER                       AV,34.0058,-118.2521,210,90011
578,191228410,12,2019-12-07T00:00:00.000,800,600 E  84TH                         ST,33.9629,-118.2651,510,90003
579,191719140,17,2019-12-07T00:00:00.000,100,MALDEN                       ST,34.2243,-118.5623,230,91306
580,190720542,7,2019-12-07T00:00:00.000,1755,4800    PICKFORD                     ST,34.0415,-118.3431,900,90019
581,191323468,13,2019-12-07T00:00:00.000,2200,1500 E  21ST                         ST,34.0197,-118.2474,510,90011
582,190326002,3,2019-12-07T00:00:00.000,100,4600    9TH                          AV,34.0019,-118.3269,901,90043
583,190326016,3,2019-12-07T00:00:00.000,1530,3500 S  WESTERN                      AV,34.0247,-118.3089,626,90018
584,191425100,14,2019-12-07T00:00:00.000,1100,11600    BRADDOCK                     DR,33.9962,-118.4119,740,90230
585,190128858,1,2019-12-07T00:00:00.000,2200,1500 S  GRAND                        AV,34.0365,-118.2659,626,90015
586,190325986,3,2019-12-07T00:00:00.000,440,3500    HOMELAND                     DR,34.0054,-118.3338,440,90008
587,191228405,12,2019-12-07T00:00:00.000,1600,100 W  82ND                         ST,33.9651,-118.2754,420,90003
588,191228424,12,2019-12-07T00:00:00.000,1500,SLAUSON                      AV,33.9892,-118.3089,440,90062
589,191617339,16,2019-12-07T00:00:00.000,1830,RALSTON,34.2674,-118.4203,510,91331
590,191228517,12,2019-12-07T00:00:00.000,1400,500 W  77TH                         ST,33.9698,-118.2827,510,90003
591,192119516,21,2019-12-07T00:00:00.000,1300,21300    ERWIN                        ST,34.1829,-118.5959,624,91367
592,190819315,8,2019-12-07T00:00:00.000,845,10400    SANTA MONICA                 BL,34.0581,-118.4236,626,90025
593,191323423,13,2019-12-07T00:00:00.000,5,5500    AVALON                       BL,33.9923,-118.2696,310,90011
594,190326054,3,2019-12-07T00:00:00.000,1500,24TH                         ST,34.0346,-118.3024,740,90018
595,192021048,20,2019-12-07T00:00:00.000,1200,MARIPOSA,34.0598,-118.2979,420,90005
596,190720507,7,2019-12-07T00:00:00.000,1700,1100 S  POINT VIEW                   ST,34.0562,-118.3681,510,90035
598,191920238,19,2019-12-07T00:00:00.000,900,12800    ENCINITAS                    AV,34.3023,-118.4769,510,91342
599,191018696,10,2019-12-07T00:00:00.000,1630,7200    AMIGO                        AV,34.2011,-118.5386,354,91335
600,191617299,16,2019-12-07T00:00:00.000,30,11300    SHELDON                      ST,34.2516,-118.3769,510,91352
601,191323472,13,2019-12-07T00:00:00.000,1600,300 W  52ND                         PL,33.995,-118.2783,745,90037
603,191228421,12,2019-12-07T00:00:00.000,1900,1700 W  SLAUSON                      AV,33.9892,-118.3062,210,90047
604,192119550,21,2019-12-07T00:00:00.000,2200,21300    DUMETZ                       RD,34.1579,-118.5946,330,91364
605,190920911,9,2019-12-07T00:00:00.000,18,12600    RIVERSIDE                    DR,34.1576,-118.4074,626,91607
606,190326006,3,2019-12-07T00:00:00.000,1530,RAYMOND,34.0219,-118.3045,210,90018
607,190128767,1,2019-12-07T00:00:00.000,1300,500 S  HILL                         ST,34.0488,-118.2518,888,90013
608,190623422,6,2019-12-07T00:00:00.000,1840,6900    HOLLYWOOD                    BL,34.1016,-118.3401,664,90028
609,191323471,13,2019-12-07T00:00:00.000,1915,CENTRAL                      AV,34.0245,-118.2505,230,90021
610,192021070,20,2019-12-07T00:00:00.000,2130,2800    LEEWARD                      AV,34.0588,-118.2842,624,90005
611,191228518,12,2019-12-07T00:00:00.000,1200,FLORENCE,33.9745,-118.3221,510,90043
612,191323436,13,2019-12-07T00:00:00.000,1,1600 E  48TH                         PL,33.9994,-118.2456,510,90011
613,190519096,5,2019-12-07T00:00:00.000,1430,500 W  8TH                          ST,33.736999999999995,-118.2879,740,90731
614,191521610,15,2019-12-07T00:00:00.000,1,11800    KITTRIDGE                    ST,34.1903,-118.39,420,91606
615,190720471,7,2019-12-07T00:00:00.000,200,WASHINGTON                   BL,34.0399,-118.3267,210,90018
616,190920932,9,2019-12-07T00:00:00.000,215,VENTURA                      BL,34.147,-118.4249,624,91423
617,190325952,3,2019-12-07T00:00:00.000,130,W  MARTIN LUTHER KING JR        BL,34.0109,-118.3132,220,90062
618,191920262,19,2019-12-07T00:00:00.000,2000,MUSCATINE,34.2258,-118.4301,220,91331
619,190128864,1,2019-12-07T00:00:00.000,2100,300 E  1ST                          ST,34.0504,-118.2409,310,90012
620,190819312,8,2019-12-07T00:00:00.000,2315,WHITWORTH                    DR,34.0571,-118.3878,210,90035
621,190128763,1,2019-12-07T00:00:00.000,1953,500 S  SPRING                       ST,34.0467,-118.25200000000001,230,90013
622,192119588,21,2019-12-07T00:00:00.000,2130,6300    VARIEL                       AV,34.1847,-118.5928,740,91367
623,190222950,2,2019-12-07T00:00:00.000,1900,500    UNION                        DR,34.058,-118.2682,330,90017
624,190920950,9,2019-12-07T00:00:00.000,800,14100    DELANO                       ST,34.1827,-118.44,901,91401
625,191323427,13,2019-12-07T00:00:00.000,930,1300    WALNUT                       ST,34.0231,-118.2499,510,90011
626,191323425,13,2019-12-07T00:00:00.000,240,15TH                         ST,34.0224,-118.2393,210,90021
627,191120511,11,2019-12-07T00:00:00.000,400,4600    HOLLYWOOD                    BL,34.0995,-118.2892,624,90027
628,191018702,10,2019-12-07T00:00:00.000,1645,18700    VENTURA                      BL,34.1707,-118.5408,442,91356
629,191120520,11,2019-12-07T00:00:00.000,1,MAUBERT                      AV,34.0991,-118.2896,510,90027
630,192021044,20,2019-12-07T00:00:00.000,1450,1100 S  NEW HAMPSHIRE                AV,34.0509,-118.2926,745,90006
631,190222886,2,2019-12-07T00:00:00.000,115,JAMES M WOOD,34.0558,-118.2841,210,90057
632,190325954,3,2019-12-07T00:00:00.000,15,4500 W  MARTIN LUTHER KING           BL,34.0175,-118.346,230,90016
633,192119518,21,2019-12-07T00:00:00.000,1820,21800    VICTORY                      BL,34.1875,-118.603,930,91367
634,191301098,13,2019-12-07T00:00:00.000,1745,6900 S  MAIN                         ST,33.9786,-118.2761,210,90003
635,190128789,1,2019-12-07T00:00:00.000,1813,700 S  FLOWER                       ST,34.0487,-118.2588,442,90017
636,190720577,7,2019-12-07T00:00:00.000,135,CASHIO                       ST,34.0504,-118.3745,330,90035
637,191425185,14,2019-12-07T00:00:00.000,1700,13400    MAXELLA                      AV,33.9873,-118.4403,341,90066
638,190720478,7,2019-12-07T00:00:00.000,1000,1600 S  LONGWOOD                     AV,34.0463,-118.3429,440,90019
639,190325966,3,2019-12-07T00:00:00.000,600,1200 W  35TH                         ST,34.0242,-118.2945,510,90007
640,191824522,18,2019-12-07T00:00:00.000,1630,800 W  134TH                        ST,33.9103,-118.2892,440,90247
641,191425108,14,2019-12-07T00:00:00.000,200,8700    DELGANY                      AV,33.9561,-118.4397,236,90293
642,191228414,12,2019-12-07T00:00:00.000,1700,200 W  83RD                         ST,33.9642,-118.2761,420,90003
643,190920948,9,2019-12-07T00:00:00.000,2130,14100    VANOWEN                      ST,34.1976,-118.4443,330,91405
644,190222923,2,2019-12-07T00:00:00.000,1900,300 N  DILLON                       ST,34.0753,-118.2812,745,90026
645,191617319,16,2019-12-07T00:00:00.000,1415,13500    PAXTON                       ST,34.2734,-118.4267,442,91331
646,190128749,1,2019-12-07T00:00:00.000,300,7TH,34.035,-118.2386,121,90021
647,191228461,12,2019-12-07T00:00:00.000,1410,700 W  82ND                         ST,33.9661,-118.2849,870,90044
648,191521601,15,2019-12-07T00:00:00.000,1100,11300    HARTLAND                     ST,34.1952,-118.37700000000001,510,91605
649,190623437,6,2019-12-07T00:00:00.000,2000,FERNWOOD,34.0956,-118.307,210,90027
650,190128762,1,2019-12-07T00:00:00.000,2345,100 E  6TH                          ST,34.046,-118.2493,624,90013
651,190623407,6,2019-12-07T00:00:00.000,1415,700 N  WESTERN                      AV,34.0865,-118.3169,420,90038
652,190920991,9,2019-12-07T00:00:00.000,2200,14100    VANOWEN                      ST,34.1976,-118.4443,330,91405
653,190128737,1,2019-12-07T00:00:00.000,230,500 S  LOS ANGELES                  ST,34.046,-118.2493,330,90013
654,191120532,11,2019-12-07T00:00:00.000,30,2900    ASBURY                       ST,34.0976,-118.2316,888,90065
655,191617400,16,2019-12-07T00:00:00.000,2030,12100    SHELDON                      ST,34.2374,-118.3964,740,91352
656,190128766,1,2019-12-07T00:00:00.000,600,700    BERNARD                      ST,34.0677,-118.2398,310,90012
657,190417723,4,2019-12-07T00:00:00.000,1320,3200    LANFRANCO                    ST,34.0332,-118.2017,745,90063
658,191920259,19,2019-12-07T00:00:00.000,300,8200    BRIMFIELD                    AV,34.2198,-118.4586,235,91402
659,191018704,10,2019-12-07T00:00:00.000,1950,HASKELL                      AV,34.1757,-118.4846,761,91436
660,191920263,19,2019-12-07T00:00:00.000,1800,14500    DYER                         ST,34.3004,-118.448,330,91342
662,191323455,13,2019-12-07T00:00:00.000,1530,1300 E  57TH                         ST,33.9912,-118.2521,420,90011
663,190222914,2,2019-12-07T00:00:00.000,1720,600 S  ALVARADO                     ST,34.0596,-118.2749,230,90057
664,191425135,14,2019-12-07T00:00:00.000,200,5200    GLASGOW                      WY,33.9724,-118.3718,420,90045
665,190920934,9,2019-12-07T00:00:00.000,1400,HART                         ST,34.1976,-118.44,510,91405
666,192021069,20,2019-12-07T00:00:00.000,2330,300 N  WESTERN                      AV,34.0799,-118.3113,624,90004
667,190519074,5,2019-12-07T00:00:00.000,715,500 W  22ND                         ST,33.7243,-118.288,930,90731
668,191228439,12,2019-12-07T00:00:00.000,515,WESTERN                      AV,33.9933,-118.3089,230,90062
669,190326086,3,2019-12-07T00:00:00.000,530,EXPOSITION                   BL,34.0183,-118.3089,740,90018
670,190417721,4,2019-12-07T00:00:00.000,1850,2600 N  MAIN                         ST,34.066,-118.2154,740,90031
671,191824496,18,2019-12-07T00:00:00.000,1430,103RD,33.9401,-118.2761,331,90003
672,192119503,21,2019-12-07T00:00:00.000,1520,6600    TOPANGA CANYON               BL,34.1905,-118.6059,330,91303
673,190128761,1,2019-12-07T00:00:00.000,1645,700 W  7TH                          ST,34.048,-118.2577,442,90017
674,191228407,12,2019-12-07T00:00:00.000,800,54TH                         ST,33.9933,-118.2871,210,90037
675,190401465,4,2019-12-07T00:00:00.000,1800,400 E  AVENUE 28,34.0831,-118.2086,740,90031
676,191323437,13,2019-12-07T00:00:00.000,1200,FLORENCE,33.9748,-118.26299999999999,510,90001
677,190417768,4,2019-12-07T00:00:00.000,1700,600 S  BOYLE                        AV,34.0386,-118.2201,310,90023
678,191920252,19,2019-12-07T00:00:00.000,5,14900    BURTON                       ST,34.2206,-118.4584,626,91402
679,190128771,1,2019-12-07T00:00:00.000,500,14TH,34.0368,-118.2629,761,90015
680,191000981,10,2019-12-07T00:00:00.000,2012,5400    AMESTOY                      AV,34.1694,-118.5055,310,91316
681,191425117,14,2019-12-07T00:00:00.000,2330,1100    AMOROSO                      PL,33.9971,-118.455,753,90291
682,191521606,15,2019-12-07T00:00:00.000,2230,5300    BELLINGHAM                   AV,34.1667,-118.3992,930,91607
683,191323456,13,2019-12-07T00:00:00.000,1220,100 E  55TH                         ST,33.9924,-118.2739,930,90011
684,191228453,12,2019-12-07T00:00:00.000,2200,3600 W  SLAUSON                      AV,33.989000000000004,-118.3352,761,90043
685,191323475,13,2019-12-07T00:00:00.000,845,1300 E  46TH                         ST,34.0021,-118.2521,946,90011
686,191617360,16,2019-12-07T00:00:00.000,1610,11000    GLENOAKS                     BL,34.2626,-118.4094,761,91331
687,191617307,16,2019-12-07T00:00:00.000,1430,7800    LANKERSHIM                   BL,34.2121,-118.3878,624,91605
688,191228393,12,2019-12-07T00:00:00.000,100,1700 W  52ND                         ST,33.9994,-118.3108,740,90062
689,191120560,11,2019-12-07T00:00:00.000,1600,2400    ECHO PARK                    AV,34.0916,-118.2539,330,90039
690,192021045,20,2019-12-07T00:00:00.000,1100,4TH                          ST,34.0674,-118.2954,626,90020
691,191228460,12,2019-12-07T00:00:00.000,1410,700 W  82ND                         ST,33.9661,-118.2849,870,90044
692,191018675,10,2019-12-07T00:00:00.000,1545,6900    RESEDA                       BL,34.1957,-118.536,761,91335
693,190326011,3,2019-12-07T00:00:00.000,2330,31ST                         ST,34.0265,-118.3089,420,90018
694,190623415,6,2019-12-07T00:00:00.000,215,5900    HOLLYWOOD                    BL,34.103,-118.3225,230,90028
695,190222945,2,2019-12-07T00:00:00.000,1800,3RD,34.0633,-118.2738,510,90057
696,192021112,20,2019-12-07T00:00:00.000,1100,900 S  ARDMORE                      AV,34.0559,-118.302,624,90006
697,191018676,10,2019-12-07T00:00:00.000,100,6300    BOVEY                        AV,34.1842,-118.5603,310,91335
698,191617335,16,2019-12-07T00:00:00.000,5,8000    WEBB                         AV,34.2157,-118.3878,740,91605
699,191824472,18,2019-12-07T00:00:00.000,500,VERMONT,33.951,-118.2916,230,90044
700,191120528,11,2019-12-07T00:00:00.000,1715,300 N  AVENUE 57,34.1127,-118.1942,624,90042
701,191920307,19,2019-12-07T00:00:00.000,736,9200    SEPULVEDA                    BL,34.2427,-118.4702,930,91343
702,190720563,7,2019-12-07T00:00:00.000,2000,1600 S  LONGWOOD                     AV,34.0463,-118.3429,624,90019
703,191323454,13,2019-12-07T00:00:00.000,1545,4200    HOOPER                       AV,34.0076,-118.2521,625,90011
704,191920292,19,2019-12-07T00:00:00.000,2140,13800    BEAVER                       ST,34.306999999999995,-118.434,901,91342
705,190519067,5,2019-12-07T00:00:00.000,1400,900 S  GAFFEY                       ST,33.7361,-118.2923,901,90731
706,192021065,20,2019-12-07T00:00:00.000,2300,500 S  HOBART                       BL,34.0654,-118.3054,626,90020
707,190920930,9,2019-12-07T00:00:00.000,2120,6600    VAN NUYS                     BL,34.1903,-118.4574,420,91411
708,191920293,19,2019-12-07T00:00:00.000,2000,12600    COMETA                       AV,34.2988,-118.4252,740,91340
709,192119546,21,2019-12-07T00:00:00.000,1940,21800    VENTURA                      BL,34.1684,-118.6021,343,91364
710,190519045,5,2019-12-07T00:00:00.000,200,21800    HALLDALE                     AV,33.8303,-118.3016,745,90501
711,192119547,21,2019-12-07T00:00:00.000,2330,21800    BRYANT                       ST,34.2273,-118.6034,330,91304
712,191617311,16,2019-12-07T00:00:00.000,340,8300    AMBOY                        AV,34.2216,-118.3908,626,91352
713,191228434,12,2019-12-07T00:00:00.000,15,500 W  50TH                         ST,33.9974,-118.2827,626,90037
714,190128805,1,2019-12-07T00:00:00.000,1800,800 S  SPRING                       ST,34.0438,-118.2547,236,90014
715,190223006,2,2019-12-07T00:00:00.000,1500,1400 S  UNION                        AV,34.0423,-118.2804,745,90015
716,190325982,3,2019-12-07T00:00:00.000,1020,3700    HALLDALE                     AV,34.021,-118.3029,624,90018
717,191228448,12,2019-12-07T00:00:00.000,2040,1600 W  69TH                         ST,33.977,-118.3046,626,90047
718,191920256,19,2019-12-07T00:00:00.000,255,9500    NATICK                       AV,34.2427,-118.4569,440,91343
719,191824498,18,2019-12-07T00:00:00.000,830,800 E  IMPERIAL                     HY,33.9345,-118.2623,236,90059
720,190623413,6,2019-12-07T00:00:00.000,215,5900    HOLLYWOOD                    BL,34.103,-118.3225,230,90028
721,190417710,4,2019-12-07T00:00:00.000,2200,MOTT,34.0382,-118.2084,510,90033
722,191120534,11,2019-12-07T00:00:00.000,1715,6100 N  FIGUEROA                     ST,34.1205,-118.1839,440,90042
723,191824492,18,2019-12-07T00:00:00.000,1655,115TH                        ST,33.9297,-118.2316,510,90059
724,191521643,15,2019-12-07T00:00:00.000,2300,6800    SIMPSON                      AV,34.194,-118.3889,230,91606
725,190301118,3,2019-12-07T00:00:00.000,1945,BUDLONG,34.0255,-118.2959,890,90007
726,191323510,13,2019-12-07T00:00:00.000,2100,40TH                         PL,34.0101,-118.2565,745,90011
727,190623435,6,2019-12-07T00:00:00.000,1850,6400    YUCCA                        ST,34.104,-118.3297,624,90028
728,190128765,1,2019-12-07T00:00:00.000,1650,700 S  FLOWER                       ST,34.0487,-118.2588,210,90017
729,192119527,21,2019-12-07T00:00:00.000,1445,21900    VANOWEN                      ST,34.1938,-118.6044,442,91303
730,190819296,8,2019-12-07T00:00:00.000,1244,10800    SANTA MONICA                 BL,34.0492,-118.4397,330,90025
731,191323490,13,2019-12-07T00:00:00.000,800,4400    HONDURAS                     ST,34.0039,-118.2441,930,90011
732,191018720,10,2019-12-07T00:00:00.000,1330,18200    HATTERAS                     ST,34.1765,-118.529,310,91356
733,190128731,1,2019-12-07T00:00:00.000,225,200 S  LOS ANGELES                  ST,34.0503,-118.2433,480,90012
734,190819321,8,2019-12-07T00:00:00.000,2300,11100 W  SUNSET                       BL,34.1016,-118.4698,310,90077
735,190920920,9,2019-12-07T00:00:00.000,1030,6700    VAN NUYS                     BL,34.1903,-118.4574,624,91411
736,190819316,8,2019-12-07T00:00:00.000,2100,GARTH,34.0389,-118.3791,510,90034
737,190920910,9,2019-12-07T00:00:00.000,1130,15300    SHERMAN                      WY,34.2085,-118.4698,420,91406
738,191824468,18,2019-12-07T00:00:00.000,100,400 E  108TH                        ST,33.9383,-118.2674,510,90061
739,190519104,5,2019-12-07T00:00:00.000,600,25900    MARKET                       PL,33.7882,-118.3087,310,90717
740,190326015,3,2019-12-07T00:00:00.000,1100,2600    BRIGHTON                     AV,34.0327,-118.3015,664,90018
741,191323450,13,2019-12-07T00:00:00.000,745,4000    TRINITY                      ST,34.0112,-118.2704,888,90011
742,192119555,21,2019-12-07T00:00:00.000,1830,6700    VARIEL                       AV,34.1921,-118.5928,940,91303
744,190128844,1,2019-12-07T00:00:00.000,2010,700 S  FIGUEROA                     ST,34.0483,-118.2631,440,90015
745,191521618,15,2019-12-07T00:00:00.000,2305,LANKERSHIM                   BL,34.2085,-118.3878,890,91605
746,191425126,14,2019-12-07T00:00:00.000,1935,12300    PACIFIC                      AV,34.0033,-118.4317,624,90066
747,191719049,17,2019-12-07T00:00:00.000,300,8600    YOLANDA                      AV,34.2264,-118.5404,910,91324
748,191323461,13,2019-12-07T00:00:00.000,1420,1300    STANFORD                     AV,34.0313,-118.2505,745,90021
749,190720564,7,2019-12-07T00:00:00.000,2100,1800 S  LA BREA                      AV,34.0424,-118.3467,624,90019
750,190720484,7,2019-12-07T00:00:00.000,1500,5900    AIRDROME                     ST,34.0458,-118.3691,510,90035
751,190519095,5,2019-12-07T00:00:00.000,2245,8TH                          ST,33.736999999999995,-118.2879,230,90731
752,190326031,3,2019-12-07T00:00:00.000,1130,3500 S  GRAMERCY                     PL,34.0246,-118.3138,310,90018
753,190720483,7,2019-12-07T00:00:00.000,1755,BEVERLY,34.0761,-118.3563,210,90036
754,191120626,11,2019-12-07T00:00:00.000,2130,1300 N  VERMONT                      AV,34.0956,-118.2918,330,90027
755,191425078,14,2019-12-07T00:00:00.000,130,12500    GILMORE                      AV,33.9908,-118.4257,930,90066
756,190623442,6,2019-12-07T00:00:00.000,1400,6500    SANTA MONICA                 BL,34.0944,-118.3277,624,90028
757,190623409,6,2019-12-07T00:00:00.000,150,SUNSET,34.098,-118.331,624,90028
758,190920938,9,2019-12-07T00:00:00.000,1800,VESPER                       AV,34.1994,-118.4509,330,91405
759,190417732,4,2019-12-07T00:00:00.000,1330,CESAR E CHAVEZ,34.0333,-118.1946,510,90063
760,191521640,15,2019-12-07T00:00:00.000,2330,10900    WHIPPLE                      ST,34.1481,-118.3673,310,91602
761,190326050,3,2019-12-07T00:00:00.000,1015,2600    VINEYARD                     AV,34.0283,-118.3492,624,90016
762,190623412,6,2019-12-07T00:00:00.000,215,5900    HOLLYWOOD                    BL,34.103,-118.3225,230,90028
763,190519056,5,2019-12-07T00:00:00.000,854,400 N  GAFFEY                       ST,33.746,-118.2923,745,90731
764,191824509,18,2019-12-07T00:00:00.000,1825,11800 S  FIGUEROA                     ST,33.9274,-118.2871,210,90044
765,191824506,18,2019-12-07T00:00:00.000,900,200 E  110TH                        ST,33.9357,-118.2717,310,90061
766,190128751,1,2019-12-07T00:00:00.000,1610,700 W  7TH                          ST,34.048,-118.2577,442,90017
767,190222915,2,2019-12-07T00:00:00.000,1510,400 S  OCCIDENTAL                   BL,34.0665,-118.2828,331,90057
768,190720490,7,2019-12-07T00:00:00.000,1110,4900 W  PICO                         BL,34.048,-118.3434,442,90019
769,192021068,20,2019-12-07T00:00:00.000,2155,100 S  NORMANDIE                    AV,34.0726,-118.3029,230,90004
770,192119539,21,2019-12-07T00:00:00.000,1700,23100    AVENUE SAN LUIS,34.1618,-118.6302,510,91364
771,192021066,20,2019-12-07T00:00:00.000,2300,3300 W  8TH                          ST,34.0577,-118.2998,230,90005
772,191901280,19,2019-12-07T00:00:00.000,1400,13800    SAYRE                        ST,34.3102,-118.4338,210,91342
773,190128757,1,2019-12-07T00:00:00.000,1530,4TH,34.0449,-118.2415,624,90013
774,191323511,13,2019-12-07T00:00:00.000,1210,HARBOR                       FY,34.0074,-118.2809,761,90037
775,190417699,4,2019-12-07T00:00:00.000,550,2800    WYNWOOD                      LN,34.025999999999996,-118.2162,901,90023
776,190819314,8,2019-12-07T00:00:00.000,1315,11300    SANTA MONICA                 BL,34.0465,-118.4484,624,90025
777,191824511,18,2019-12-07T00:00:00.000,1700,9500 S  CENTRAL                      AV,33.9503,-118.25399999999999,310,90002
778,190920957,9,2019-12-07T00:00:00.000,2200,6200    VAN NUYS                     BL,34.1831,-118.4523,745,91411
779,190519049,5,2019-12-07T00:00:00.000,500,1400    BRETT                        PL,33.7562,-118.3065,745,90732
780,191228428,12,2019-12-07T00:00:00.000,1725,900 W  59TH                         DR,33.9862,-118.2892,624,90044
781,190623440,6,2019-12-07T00:00:00.000,2030,5600 W  SUNSET                       BL,34.0981,-118.3113,480,90028
782,191521617,15,2019-12-07T00:00:00.000,1830,5600    CAHUENGA                     BL,34.1722,-118.3615,740,91601
783,191617321,16,2019-12-07T00:00:00.000,1830,ROSCOE,34.2215,-118.3703,230,91352
784,190623410,6,2019-12-07T00:00:00.000,215,5900    HOLLYWOOD                    BL,34.103,-118.3225,230,90028
785,190519058,5,2019-12-07T00:00:00.000,330,22200 S  NORMANDIE                    AV,33.8204,-118.3037,236,90501
786,190920918,9,2019-12-07T00:00:00.000,1700,14000    RIVERSIDE                    DR,34.1576,-118.43799999999999,341,91423
787,191617364,16,2019-12-07T00:00:00.000,1610,11000    GLENOAKS                     BL,34.2626,-118.4094,624,91331
788,190128778,1,2019-12-07T00:00:00.000,1430,300 S  SPRING                       ST,34.0503,-118.24700000000001,330,90013
789,192021071,20,2019-12-07T00:00:00.000,2130,2800    LEEWARD                      AV,34.0588,-118.2842,624,90005
790,190128764,1,2019-12-07T00:00:00.000,1945,GRAND,34.043,-118.2606,740,90015
791,192021098,20,2019-12-07T00:00:00.000,604,200 S  VERMONT                      AV,34.0709,-118.2941,740,90004
792,191617323,16,2019-12-07T00:00:00.000,1800,13200    DEL SUR                      ST,34.2828,-118.4228,930,91340
793,190920969,9,2019-12-07T00:00:00.000,800,5300    COLDWATER CANYON             AV,34.1666,-118.4138,440,91401
794,192119526,21,2019-12-07T00:00:00.000,1710,6400    DE SOTO                      AV,34.1865,-118.5886,440,91304
795,191617359,16,2019-12-07T00:00:00.000,1610,11000    GLENOAKS                     BL,34.2626,-118.4094,761,91331
796,190720576,7,2019-12-07T00:00:00.000,1745,ORLANDO                      AV,34.073,-118.3731,330,90048
797,191617344,16,2019-12-07T00:00:00.000,15,8600    MOREHART                     AV,34.2261,-118.3991,331,91352
798,190417711,4,2019-12-07T00:00:00.000,1545,1ST,34.0437,-118.2098,437,90033
799,190325995,3,2019-12-07T00:00:00.000,100,3300 W  43RD                         PL,34.0044,-118.3294,440,90008
800,190920929,9,2019-12-07T00:00:00.000,1645,6500 N  SEPULVEDA                    BL,34.1885,-118.4662,956,91411
801,191120531,11,2019-12-07T00:00:00.000,1220,1600    WESTERLY                     TR,34.0884,-118.2702,626,90026
802,190222955,2,2019-12-07T00:00:00.000,1550,11TH                         ST,34.0493,-118.2786,210,90006
803,190222926,2,2019-12-07T00:00:00.000,1430,PICO,34.0423,-118.2804,745,90015
804,191617298,16,2019-12-07T00:00:00.000,530,7700    VINELAND                     AV,34.2103,-118.3703,510,91352
805,190819313,8,2019-12-07T00:00:00.000,1500,1500    BROCKTON                     AV,34.0375,-118.4622,901,90025
806,191228485,12,2019-12-07T00:00:00.000,1615,8TH                          AV,33.9746,-118.3265,648,90043
807,190819325,8,2019-12-07T00:00:00.000,1300,11200 W  OLYMPIC                      BL,34.0363,-118.4446,440,90064
808,192119564,21,2019-12-07T00:00:00.000,1530,VANOWEN                      ST,34.1937,-118.6234,745,91307
809,191120567,11,2019-12-07T00:00:00.000,1800,4000    EAGLE ROCK                   BL,34.1201,-118.2289,330,90065
810,191323521,13,2019-12-07T00:00:00.000,2300,MAIN,34.0038,-118.274,946,90037
811,190623480,6,2019-12-07T00:00:00.000,1200,2100    VINE                         ST,34.1129,-118.32799999999999,664,90068
812,191018745,10,2019-12-07T00:00:00.000,100,15800    SATICOY                      ST,34.2085,-118.4771,330,91406
813,191425139,14,2019-12-07T00:00:00.000,2022,800    WASHINGTON                   BL,33.9879,-118.4527,761,90291
814,190326017,3,2019-12-07T00:00:00.000,2100,3600    7TH                          AV,34.023,-118.3248,510,90018
815,190222933,2,2019-12-07T00:00:00.000,1505,100 N  DILLON                       ST,34.0723,-118.2831,626,90057
816,192021051,20,2019-12-07T00:00:00.000,1200,2700    SAN MARINO                   ST,34.0564,-118.2879,420,90005
817,190417702,4,2019-12-07T00:00:00.000,800,3500    OPAL                         ST,34.0213,-118.2019,888,90023
818,191323482,13,2019-12-07T00:00:00.000,1500,3800    WALL                         ST,34.0128,-118.2712,745,90011
819,190819292,8,2019-12-07T00:00:00.000,400,11200 W  OLYMPIC                      BL,34.0363,-118.4446,740,90064
820,190501085,5,2019-12-07T00:00:00.000,2235,WATSON                       AV,33.7909,-118.2482,753,90744
821,192119553,21,2019-12-07T00:00:00.000,2000,8800    FARRALONE                    AV,34.2305,-118.6104,310,91304
822,190128741,1,2019-12-07T00:00:00.000,1000,400 S  HOPE                         ST,34.0522,-118.2538,440,90071
823,190519081,5,2019-12-07T00:00:00.000,1735,PACIFIC COAST                HY,33.7899,-118.2975,624,90710
824,191700966,17,2019-12-07T00:00:00.000,530,11900    DARBY                        AV,34.2891,-118.5392,310,91326
825,191323505,13,2019-12-07T00:00:00.000,35,CENTRAL                      AV,34.0039,-118.2565,437,90011
826,190519149,5,2019-12-07T00:00:00.000,1200,25200    VERMONT                      AV,33.7957,-118.2908,331,90710
827,191824555,18,2019-12-07T00:00:00.000,1800,10100    WILMINGTON                   AV,33.945,-118.23899999999999,510,90002
828,190920924,9,2019-12-07T00:00:00.000,2110,6700    VENTURA CANYON               AV,34.1923,-118.429,210,91401
829,191228429,12,2019-12-07T00:00:00.000,1700,2000 W  77TH                         ST,33.97,-118.3134,510,90047
830,190326020,3,2019-12-07T00:00:00.000,1950,24TH                         ST,34.034,-118.3133,745,90018
831,191425094,14,2019-12-07T00:00:00.000,1230,600    ROSE                         AV,33.9992,-118.47200000000001,740,90291
832,191617330,16,2019-12-07T00:00:00.000,1900,ROSCOE,34.2215,-118.3703,624,91352
833,190222922,2,2019-12-07T00:00:00.000,1830,6TH,34.0555,-118.2656,624,90017
834,191120546,11,2019-12-07T00:00:00.000,2230,1500    GLENDALE                     BL,34.0819,-118.2601,624,90026
835,190623430,6,2019-12-07T00:00:00.000,530,1400 N  LA BREA                      AV,34.0962,-118.34899999999999,820,90046
836,190326021,3,2019-12-07T00:00:00.000,1950,BUDLONG,34.0255,-118.2959,740,90007
837,191920286,19,2019-12-07T00:00:00.000,1600,10700    LEV                          AV,34.2649,-118.4481,930,91345
838,191228487,12,2019-12-07T00:00:00.000,2300,700 W  56TH                         ST,33.9915,-118.2856,440,90037
839,191425137,14,2019-12-07T00:00:00.000,2130,3800    LYCEUM                       AV,33.9994,-118.44200000000001,420,90066
840,190819287,8,2019-12-07T00:00:00.000,135,16600    MARQUEZ                      AV,34.0481,-118.5433,320,90272
841,192021039,20,2019-12-07T00:00:00.000,1030,200 N  KENMORE                      AV,34.0746,-118.2966,626,90004
842,191228425,12,2019-12-07T00:00:00.000,1100,5200 S  SAINT ANDREWS                PL,33.9951,-118.3113,420,90062
843,191018721,10,2019-12-07T00:00:00.000,400,18700    HART                         ST,34.1977,-118.5404,745,91335
844,192119514,21,2019-12-07T00:00:00.000,440,20900    BLYTHE                       ST,34.2152,-118.5896,745,91304
845,191824493,18,2019-12-07T00:00:00.000,1310,200 E  110TH                        ST,33.9357,-118.2717,310,90061
846,191521614,15,2019-12-07T00:00:00.000,200,10500    BLOOMFIELD                   ST,34.1496,-118.3593,330,91602
847,191228475,12,2019-12-07T00:00:00.000,1053,5500 S  HOOVER                       ST,33.9924,-118.2871,310,90037
848,191228447,12,2019-12-07T00:00:00.000,1400,SLAUSON                      AV,33.9892,-118.2915,330,90044
849,191120535,11,2019-12-07T00:00:00.000,1920,ARMITAGE                     ST,34.086,-118.2538,740,90026
850,190623460,6,2019-12-07T00:00:00.000,1300,5400    CARLTON                      WY,34.1005,-118.3071,420,90027
851,191018681,10,2019-12-07T00:00:00.000,1,WESTFALL                     PL,34.1428,-118.4932,420,91436
853,191323493,13,2019-12-07T00:00:00.000,1000,1000 E  28TH                         ST,34.0175,-118.2574,510,90011
854,191323452,13,2019-12-07T00:00:00.000,1545,4200    HOOPER                       AV,34.0076,-118.2521,625,90011
855,190519107,5,2019-12-07T00:00:00.000,1730,24200 S  WESTERN                      AV,33.8053,-118.3075,745,90717
856,192021090,20,2019-12-07T00:00:00.000,1830,600 N  HARVARD                      BL,34.0799,-118.3068,901,90004
857,191228427,12,2019-12-07T00:00:00.000,2300,100 W  81ST                         ST,33.966,-118.2739,420,90003
858,191228430,12,2019-12-07T00:00:00.000,1130,6500    BRYNHURST                    AV,33.9806,-118.3338,930,90043
859,190128812,1,2019-12-07T00:00:00.000,1200,1200 S  FIGUEROA                     ST,34.0431,-118.2692,341,90015
860,191323444,13,2019-12-07T00:00:00.000,235,41ST                         PL,34.0075,-118.2775,745,90037
861,190417708,4,2019-12-07T00:00:00.000,2000,2400    MARENGO                      ST,34.0544,-118.2024,510,90033
862,190920905,9,2019-12-07T00:00:00.000,430,6800    WOODMAN                      AV,34.1976,-118.4356,310,91405
863,191920267,19,2019-12-07T00:00:00.000,1755,ROSCOE,34.2215,-118.4516,624,91402
864,190720505,7,2019-12-07T00:00:00.000,1400,1800    CLYDE                        AV,34.0431,-118.3635,420,90019
865,190623411,6,2019-12-07T00:00:00.000,215,5900    HOLLYWOOD                    BL,34.103,-118.3225,230,90028
866,191323443,13,2019-12-07T00:00:00.000,235,41ST                         PL,34.0075,-118.2775,753,90037
867,191920266,19,2019-12-07T00:00:00.000,1820,8100    KESTER                       AV,34.2193,-118.4575,624,91402
868,191120581,11,2019-12-07T00:00:00.000,1030,3200    GLENHURST                    AV,34.1114,-118.2571,331,90039
869,191228409,12,2019-12-07T00:00:00.000,630,5400    6TH                          AV,33.9932,-118.3236,946,90043
870,191018670,10,2019-12-07T00:00:00.000,1115,SHERMAN                      WY,34.2012,-118.536,761,91335
871,191617322,16,2019-12-07T00:00:00.000,1420,7800    LANKERSHIM                   BL,34.2121,-118.3878,626,91605
872,191120579,11,2019-12-07T00:00:00.000,2200,1900 N  COMMONWEALTH                 AV,34.1096,-118.2884,626,90027
873,190519059,5,2019-12-07T00:00:00.000,330,22200 S  NORMANDIE                    AV,33.8204,-118.3037,237,90501
874,192021101,20,2019-12-07T00:00:00.000,1800,WILSHIRE                     BL,34.0617,-118.3116,330,90010
875,190519153,5,2019-12-07T00:00:00.000,920,900 S  PATTON                       AV,33.7361,-118.3056,930,90732
876,191018719,10,2019-12-07T00:00:00.000,1600,4300    ALONZO                       AV,34.1487,-118.5205,310,91316
877,191323497,13,2019-12-07T00:00:00.000,2300,64TH                         ST,33.9814,-118.2783,330,90003
879,191018703,10,2019-12-07T00:00:00.000,1730,16400    VANOWEN                      ST,34.1939,-118.4902,230,91406
880,190326022,3,2019-12-07T00:00:00.000,1235,4300 S  FIGUEROA                     ST,34.0054,-118.2827,624,90037
881,190819291,8,2019-12-07T00:00:00.000,1130,8800    VENICE                       BL,34.0311,-118.3851,624,90034
882,190519097,5,2019-12-07T00:00:00.000,1030,1600 W  220TH                        ST,33.828,-118.3064,331,90501
883,190800810,8,2019-12-07T00:00:00.000,2030,1200    ARMACOST                     AV,34.0467,-118.4643,320,90025
884,191228391,12,2019-12-07T00:00:00.000,215,3300 W  FLORENCE                     AV,33.9746,-118.3294,210,90043
885,190222924,2,2019-12-07T00:00:00.000,1830,UNION,34.0442,-118.2772,210,90015
886,191920261,19,2019-12-07T00:00:00.000,945,9800    SEPULVEDA                    BL,34.2482,-118.4675,740,91343
887,190128754,1,2019-12-07T00:00:00.000,1620,ALISO,34.0549,-118.2395,230,90012
888,191120506,11,2019-12-06T00:00:00.000,1900,SUNSET                       BL,34.0782,-118.2664,330,90026
889,190920865,9,2019-12-06T00:00:00.000,100,7600    SEPULVEDA                    BL,34.2085,-118.4662,354,91405
890,191719073,17,2019-12-06T00:00:00.000,2300,11800    RICASOLI                     WY,34.2854,-118.5844,236,91326
891,192021073,20,2019-12-06T00:00:00.000,600,2700    SAN MARINO                   ST,34.055,-118.2865,420,90006
892,191617331,16,2019-12-06T00:00:00.000,1425,12000    SHELDON                      ST,34.2393,-118.3938,624,91352
893,191323441,13,2019-12-06T00:00:00.000,1800,1300 E  OLYMPIC                      BL,34.032,-118.2441,761,90021
894,191120500,11,2019-12-06T00:00:00.000,2030,2800 E  OBSERVATORY                  RD,34.1192,-118.3004,330,90027
895,191617312,16,2019-12-06T00:00:00.000,2130,TERRA BELLA,34.2528,-118.4258,210,91331
896,191521616,15,2019-12-06T00:00:00.000,2200,12000    ALBERS                       ST,34.1704,-118.3943,740,91607
897,191700964,17,2019-12-06T00:00:00.000,1215,9300    TAMPA                        AV,34.244,-118.5583,236,91324
898,191228370,12,2019-12-06T00:00:00.000,1600,7300 S  WESTERN                      AV,33.9737,-118.309,624,90047
899,191301099,13,2019-12-06T00:00:00.000,2200,200 E  47TH                         PL,34.0002,-118.2718,251,90011
900,191425172,14,2019-12-06T00:00:00.000,1700,700    WORLD                        WY,33.9432,-118.4013,341,90045
901,190222910,2,2019-12-06T00:00:00.000,1300,7TH                          ST,34.0582,-118.2805,745,90057
902,191120493,11,2019-12-06T00:00:00.000,1500,2700 N  VERMONT                      AV,34.1179,-118.29299999999999,330,90027
903,190519048,5,2019-12-06T00:00:00.000,2220,300 W  SEPULVEDA                    ST,33.7451,-118.2835,626,90731
904,191920264,19,2019-12-06T00:00:00.000,2230,15500    FOOTHILL                     BL,34.323,-118.4694,330,91342
905,191120522,11,2019-12-06T00:00:00.000,1600,5600    FAYETTE                      ST,34.1202,-118.1949,510,90042
906,191800860,18,2019-12-06T00:00:00.000,1600,8600    DENVER                       AV,33.9601,-118.2839,310,90044
907,191228355,12,2019-12-06T00:00:00.000,420,1000 W  56TH                         ST,33.9914,-118.2915,626,90037
908,190128708,1,2019-12-06T00:00:00.000,50,1300 S  FIGUEROA                     ST,34.0407,-118.26799999999999,860,90015
909,191018684,10,2019-12-06T00:00:00.000,1420,16800    ROSCOE                       BL,34.221,-118.4989,343,91406
910,190222872,2,2019-12-06T00:00:00.000,1400,3500 W  TEMPLE                       ST,34.08,-118.2881,624,90004
911,192000982,20,2019-12-06T00:00:00.000,1600,2400 W  15TH                         ST,34.0454,-118.2936,812,90006
912,190128728,1,2019-12-06T00:00:00.000,1605,1100    SANTEE                       ST,34.0378,-118.2561,440,90015
913,190128742,1,2019-12-06T00:00:00.000,330,100 S  FIGUEROA                     ST,34.0569,-118.25399999999999,331,90012
914,191824419,18,2019-12-06T00:00:00.000,500,11200 S  BROADWAY,33.933,-118.2783,648,90061
915,190720578,7,2019-12-06T00:00:00.000,1545,900    SCHUMACHER                   DR,34.0612,-118.3729,330,90048
917,191228392,12,2019-12-06T00:00:00.000,1030,3600 W  61ST                         ST,33.9845,-118.3352,664,90043
918,190128686,1,2019-12-06T00:00:00.000,1155,700 S  FLOWER                       ST,34.0487,-118.2588,442,90017
919,191228350,12,2019-12-06T00:00:00.000,1325,1700 W  79TH                         ST,33.9709,-118.3112,753,90047
920,190623467,6,2019-12-06T00:00:00.000,2000,1500 N  EL CENTRO                    AV,34.098,-118.3237,510,90028
921,192020982,20,2019-12-06T00:00:00.000,45,GRAMERCY,34.0597,-118.3122,210,90005
922,190417722,4,2019-12-06T00:00:00.000,1730,1300 S  BOYLE                        AV,34.0264,-118.2209,745,90023
923,191617313,16,2019-12-06T00:00:00.000,130,11500    GLENOAKS                     BL,34.2816,-118.42,220,91331
924,190222911,2,2019-12-06T00:00:00.000,2020,900 N  MARIPOSA                     AV,34.0869,-118.29899999999999,440,90029
925,190417691,4,2019-12-06T00:00:00.000,1950,MARENGO,34.0556,-118.205,210,90033
926,190325962,3,2019-12-06T00:00:00.000,1415,FIGUEROA,34.0056,-118.2827,626,90037
927,191018658,10,2019-12-06T00:00:00.000,1730,15800    VANOWEN                      ST,34.1976,-118.4799,664,91406
928,192119486,21,2019-12-06T00:00:00.000,1400,21300    VICTORY                      BL,34.1884,-118.5959,928,91367
929,190128738,1,2019-12-06T00:00:00.000,1518,6TH                          ST,34.0439,-118.2479,860,90013
930,191920208,19,2019-12-06T00:00:00.000,1520,15500    DEVONSHIRE                   ST,34.260999999999996,-118.4698,210,91345
